id,name,class,mass (g),mass (kg),fall,year,latitude,longitude,GeoLocation
16988,Nogata,L6,472,0.472,Fell,860,33.725,130.75,"(33.725, 130.75)"
7823,Elbogen,"Iron, IID",107000,107,Fell,1399,50.18333,12.73333,"(50.18333, 12.73333)"
22614,Rivolta de Bassi,Stone-uncl,103.3,0.1033,Fell,1490,45.48333,9.51667,"(45.48333, 9.51667)"
10039,Ensisheim,LL6,127000,127,Fell,1491,47.86667,7.35,"(47.86667, 7.35)"
5247,Campo del Cielo,"Iron, IAB-MG",50000000,50000,Found,1575,-27.46667,-60.58333,"(-27.46667, -60.58333)"
5295,Castrovillari,Stone-uncl,15000,15,Fell,1583,39.8,16.2,"(39.8, 16.2)"
16745,Morito,"Iron, IIIAB",10100000,10100,Found,1600,27.05,-105.43333,"(27.05, -105.43333)"
12069,Jalandhar,Iron,1967,1.967,Fell,1621,31,75,"(31.0, 75.0)"
23732,Stretchleigh,Stone-uncl,10400,10.4,Fell,1623,50.38333,-3.95,"(50.38333, -3.95)"
11855,Hatford,Stone-uncl,29000,29,Fell,1628,51.65,-1.51667,"(51.65, -1.51667)"
16692,Minamino,L,1040,1.04,Fell,1632,35.07833,136.93333,"(35.07833, 136.93333)"
16805,Mount Vaisi,Stone-uncl,17000,17,Fell,1637,44.08333,6.86667,"(44.08333, 6.86667)"
24143,Vago,H6,40,0.04,Fell,1668,45.41667,11.13333,"(45.41667, 11.13333)"
18033,Ortenau,Stone-uncl,4500,4.5,Fell,1671,48.5,8,"(48.5, 8.0)"
23187,Sasagase,H,695,0.695,Fell,1688,34.71667,137.78333,"(34.71667, 137.78333)"
23457,Schellin,L,7000,7,Fell,1715,53.35,15.05,"(53.35, 15.05)"
23615,Siratik,"Iron, IIAB",1700,1.7,Found,1716,14,-11,"(14.0, -11.0)"
18849,Ploschkovitz,L5,39,0.039,Fell,1723,50.53333,14.11667,"(50.53333, 14.11667)"
23722,Steinbach,"Iron, IVA-an",98000,98,Found,1724,50.5,12.5,"(50.5, 12.5)"
22396,Rasgrad,Stone-uncl,24700,24.7,Fell,1740,43.5,26.53333,"(43.5, 26.53333)"
17994,Ogi,H6,14360,14.36,Fell,1741,33.28333,130.2,"(33.28333, 130.2)"
12356,Krasnojarsk,"Pallasite, PMG-an",700000,700,Found,1749,54.9,91.8,"(54.9, 91.8)"
11916,Hraschina,"Iron, IID",49000,49,Fell,1751,46.1,16.33333,"(46.1, 16.33333)"
23776,Tabor,H5,7540,7.54,Fell,1753,49.4,14.65,"(49.4, 14.65)"
14757,Luponnas,H3-5,14000,14,Fell,1753,46.21667,5,"(46.21667, 5.0)"
453,Albareto,L/LL4,2000,2,Fell,1766,44.65,11.01667,"(44.65, 11.01667)"
14724,Lucé,L6,3500,3.5,Fell,1768,47.85,0.48333,"(47.85, 0.48333)"
15446,Mauerkirchen,L6,19000,19,Fell,1768,48.18333,13.13333,"(48.18333, 13.13333)"
23495,Sena,H4,4000,4,Fell,1773,41.71667,-0.05,"(41.71667, -0.05)"
22642,Rodach,Stone-uncl,2900,2.9,Fell,1775,50.35,10.8,"(50.35, 10.8)"
24018,Toluca,"Iron, IAB-sLL",3000000,3000,Found,1776,19.56667,-99.56667,"(19.56667, -99.56667)"
14695,Longchang,"Iron, IVA-an",158500,158.5,Found,1781,29.3,105.3,"(29.3, 105.3)"
23587,Sierra Blanca,"Iron, IAB?",405,0.405,Found,1784,27.15,-104.9,"(27.15, -104.9)"
5015,Bendegó,"Iron, IC",5360000,5360,Found,1784,-10.11667,-39.2,"(-10.11667, -39.2)"
7775,Eichstädt,H5,3000,3,Fell,1785,48.9,11.21667,"(48.9, 11.21667)"
12291,Kharkov,L6,1500,1.5,Fell,1787,50.625,35.075,"(50.625, 35.075)"
4942,Barbotan,H5,6400,6.4,Fell,1790,43.95,-0.05,"(43.95, -0.05)"
30381,Zacatecas (1792),"Iron, ungrouped",1000000,1000,Found,1792,22.81667,-102.56667,"(22.81667, -102.56667)"
5261,Cape of Good Hope,"Iron, IVB",136000,136,Found,1793,-33.5,26,"(-33.5, 26.0)"
23586,Siena,LL5,3700,3.7,Fell,1794,43.11667,11.6,"(43.11667, 11.6)"
16851,Mulletiwu,L,25.5,0.0255,Fell,1795,9.33333,80.83333,"(9.33333, 80.83333)"
24325,Wold Cottage,L6,25000,25,Fell,1795,54.13667,-0.41333,"(54.13667, -0.41333)"
5063,Bjelaja Zerkov,H6,1850,1.85,Fell,1796,49.78333,30.16667,"(49.78333, 30.16667)"
18876,Portugal,Stone-uncl,4500,4.5,Fell,1796,38.5,-8,"(38.5, -8.0)"
18884,Prambanan,"Iron, ungrouped",500000,500,Found,1797,-7.56667,110.83333,"(-7.56667, 110.83333)"
5011,Benares (a),LL4,3700,3.7,Fell,1798,25.36667,82.91667,"(25.36667, 82.91667)"
23111,Salles,L5,9000,9,Fell,1798,46.05,4.63333,"(46.05, 4.63333)"
15447,Mauritius,L6,220,0.22,Fell,1801,-20,57,"(-20.0, 57.0)"
15443,Mässing,Howardite,1600,1.6,Fell,1803,48.13333,12.61667,"(48.13333, 12.61667)"
2320,Apt,L6,3200,3.2,Fell,1803,43.86667,5.38333,"(43.86667, 5.38333)"
12434,L'Aigle,L6,37000,37,Fell,1803,48.76667,0.63333,"(48.76667, 0.63333)"
5093,Bocas,L6,56,0.056,Fell,1804,23,-102,"(23.0, -102.0)"
6603,Darmstadt,H5,100,0.1,Fell,1804,49.86667,8.65,"(49.86667, 8.65)"
11884,High Possil,L6,4500,4.5,Fell,1804,55.9,-4.23333,"(55.9, -4.23333)"
16705,Misteca,"Iron, ungrouped",10000,10,Found,1804,16.8,-97.1,"(16.8, -97.1)"
5326,Charcas,"Iron, IIIAB",1400000,1400,Found,1804,23.08333,-101.01667,"(23.08333, -101.01667)"
2345,Asco,H6,41,0.041,Fell,1805,42.45,9.03333,"(42.45, 9.03333)"
7718,Doroninsk,H5-7,3891,3.891,Fell,1805,51.2,112.3,"(51.2, 112.3)"
5062,Bitburg,"Iron, IAB complex",1500000,1500,Found,1805,49.96667,6.53333,"(49.96667, 6.53333)"
448,Alais,CI1,6000,6,Fell,1806,44.11667,4.08333,"(44.11667, 4.08333)"
24004,Timochin,H5,65500,65.5,Fell,1807,54.5,35.2,"(54.5, 35.2)"
24249,Weston,H4,150000,150,Fell,1807,41.266667,-73.266667,"(41.266667, -73.266667)"
16740,Moradabad,L6,70,0.07,Fell,1808,28.78333,78.83333,"(28.78333, 78.83333)"
5110,Borgo San Donino,LL6,1676,1.676,Fell,1808,44.86667,10.05,"(44.86667, 10.05)"
14661,Lissa,L6,12800,12.8,Fell,1808,50.2,14.85,"(50.2, 14.85)"
23713,Stannern,Eucrite-mmict,52000,52,Fell,1808,49.28333,15.56667,"(49.28333, 15.56667)"
22548,Red River,"Iron, IIIAB",800000,800,Found,1808,32,-95,"(32.0, -95.0)"
12306,Kikino,H6,195,0.195,Fell,1809,55,34,"(55.0, 34.0)"
5296,Caswell County,OC,1360,1.36,Fell,1810,36.5,-79.25,"(36.5, -79.25)"
16737,Mooresfort,H5,3520,3.52,Fell,1810,52.45,-8.33333,"(52.45, -8.33333)"
5329,Charsonville,H6,27000,27,Fell,1810,47.93333,1.56667,"(47.93333, 1.56667)"
5130,Brahin,"Pallasite, PMG",823000,823,Found,1810,52.5,30.33333,"(52.5, 30.33333)"
23167,Santa Rosa,"Iron, IC",825000,825,Found,1810,5.91667,-73,"(5.91667, -73.0)"
18902,Punganaru,Stone-uncl,100,0.1,Fell,1811,13.33333,78.95,"(13.33333, 78.95)"
5029,Berlanguillas,L6,1440,1.44,Fell,1811,41.68333,-3.8,"(41.68333, -3.8)"
12370,Kuleschovka,L6,6000,6,Fell,1811,50.75,33.5,"(50.75, 33.5)"
5114,Borodino,H5,500,0.5,Fell,1812,55.46667,35.86667,"(55.46667, 35.86667)"
24036,Toulouse,H6,1030,1.03,Fell,1812,43.6,1.4,"(43.6, 1.4)"
10049,Erxleben,H6,2250,2.25,Fell,1812,52.21667,11.25,"(52.21667, 11.25)"
5325,Chantonnay,L6,31500,31.5,Fell,1812,46.68333,1.05,"(46.68333, 1.05)"
14756,Luotolax,Howardite,885,0.885,Fell,1813,61.2,27.7,"(61.2, 27.7)"
14652,Limerick,H5,50000,50,Fell,1813,52.56667,-8.78333,"(52.56667, -8.78333)"
5314,Chail,H6,0.5,0.0005,Fell,1814,25.36667,81.66667,"(25.36667, 81.66667)"
11464,Gurram Konda,L6,28,0.028,Fell,1814,13.78333,78.56667,"(13.78333, 78.56667)"
4917,Bachmut,L6,18000,18,Fell,1814,48.6,38,"(48.6, 38.0)"
392,Agen,H5,30000,30,Fell,1814,44.21667,0.61667,"(44.21667, 0.61667)"
12763,Lenarto,"Iron, IIIAB",108500,108.5,Found,1814,49,21,"(49.0, 21.0)"
5331,Chassigny,Martian (chassignite),4000,4,Fell,1815,47.71667,5.36667,"(47.71667, 5.36667)"
7750,Durala,L6,13200,13.2,Fell,1815,30.3,76.63333,"(30.3, 76.63333)"
11468,Hachi-oji,H?,0.2,0.0002,Fell,1817,35.65,139.33333,"(35.65, 139.33333)"
23645,Slobodka,L4,2750,2.75,Fell,1818,55,35,"(55.0, 35.0)"
30379,Zaborzika,L6,3867,3.867,Fell,1818,50.28333,27.68333,"(50.28333, 27.68333)"
23501,Seres,H4,8500,8.5,Fell,1818,41.05,23.56667,"(41.05, 23.56667)"
5203,Cambria,"Iron, ungrouped",16300,16.3,Found,1818,43.2,-78.8,"(43.2, -78.8)"
5262,Cape York,"Iron, IIIAB",58200000,58200,Found,1818,76.13333,-64.93333,"(76.13333, -64.93333)"
18853,Pohlitz,L5,3000,3,Fell,1819,50.93333,12.13333,"(50.93333, 12.13333)"
12202,Jonzac,Eucrite-mmict,5000,5,Fell,1819,45.43333,-0.45,"(45.43333, -0.45)"
5172,Burlington,"Iron, IIIE",68000,68,Found,1819,42.75,-75.18333,"(42.75, -75.18333)"
14670,Lixna,H4,5213,5.213,Fell,1820,56,26.43333,"(56.0, 26.43333)"
12214,Juvinas,Eucrite-mmict,91000,91,Fell,1821,44.71667,4.3,"(44.71667, 4.3)"
12221,Kadonah,H6,89,0.089,Fell,1822,27.08333,78.33333,"(27.08333, 78.33333)"
24112,Umbala,LL5,100,0.1,Fell,1822,30.33333,76.33333,"(30.33333, 76.33333)"
10041,Épinal,H5,277,0.277,Fell,1822,48.18333,6.46667,"(48.18333, 6.46667)"
11444,Guilford County,"Iron, IIIAB",1100,1.1,Found,1822,35.56667,-79.83333,"(35.56667, -79.83333)"
10839,Futtehpur,L6,4000,4,Fell,1822,25.95,80.81667,"(25.95, 80.81667)"
12025,Imilac,"Pallasite, PMG",920000,920,Found,1822,-24.20333,-68.80667,"(-24.20333, -68.80667)"
5117,Botschetschki,L4,614,0.614,Fell,1823,51.33333,33.88333,"(51.33333, 33.88333)"
16984,Nobleborough,Eucrite-pmict,2300,2.3,Fell,1823,44.08333,-69.48333,"(44.08333, -69.48333)"
22586,Renazzo,CR2,1000,1,Fell,1824,44.76667,11.28333,"(44.76667, 11.28333)"
30397,Zebrak,H5,2000,2,Fell,1824,49.88333,13.91667,"(49.88333, 13.91667)"
24037,Tounkin,OC,2000,2,Fell,1824,51.73333,102.53333,"(51.73333, 102.53333)"
11904,Honolulu,L5,2420,2.42,Fell,1825,21.3,-157.86667,"(21.3, -157.86667)"
16904,Nanjemoy,H6,7500,7.5,Fell,1825,38.41667,-77.16667,"(38.41667, -77.16667)"
30349,Yanhuitlan,"Iron, IVA",421000,421,Found,1825,17.53333,-97.35,"(17.53333, -97.35)"
16696,Mineo,Pallasite,42,0.042,Fell,1826,37.28333,14.7,"(37.28333, 14.7)"
10846,Galapian,H6,132.7,0.1327,Fell,1826,44.3,0.4,"(44.3, 0.4)"
18176,Pavlograd,L6,40000,40,Fell,1826,48.53333,35.98333,"(48.53333, 35.98333)"
16629,Mhow,L6,350,0.35,Fell,1827,25.9,83.61667,"(25.9, 83.61667)"
5042,Bialystok,Eucrite-pmict,4000,4,Fell,1827,53.1,23.2,"(53.1, 23.2)"
7728,Drake Creek,L6,5000,5,Fell,1827,36.4,-86.5,"(36.4, -86.5)"
22603,Richmond,LL5,1800,1.8,Fell,1828,37.46667,-77.5,"(37.46667, -77.5)"
12393,La Caille,"Iron, ungrouped",626000,626,Found,1828,43.73333,6.78333,"(43.73333, 6.78333)"
6634,Deal,L6,28,0.028,Fell,1829,40.25,-74,"(40.25, -74.0)"
12355,Krasnoi-Ugol,L6,2440,2.44,Fell,1829,54.03333,40.9,"(54.03333, 40.9)"
10164,Forsyth,L6,16300,16.3,Fell,1829,33.01667,-83.96667,"(33.01667, -83.96667)"
5099,Bohumilitz,"Iron, IAB-MG",59000,59,Found,1829,49.05,13.76667,"(49.05, 13.76667)"
18797,Perth,LL5,2,0.002,Fell,1830,56.4,-3.43333,"(56.4, -3.43333)"
12740,Launton,L6,1060,1.06,Fell,1830,51.9,-1.11667,"(51.9, -1.11667)"
24244,Wessely,H5,3750,3.75,Fell,1831,48.95,17.38333,"(48.95, 17.38333)"
24191,Vouillé,L6,20000,20,Fell,1831,46.63333,0.16667,"(46.63333, 0.16667)"
24204,Walker County,"Iron, IIAB",74800,74.8,Found,1832,34,-87.16667,"(34.0, -87.16667)"
5072,Blansko,H6,470,0.47,Fell,1833,49.36667,16.63333,"(49.36667, 16.63333)"
18002,Okniny,LL6,12000,12,Fell,1834,50.83333,25.5,"(50.83333, 25.5)"
5330,Charwallas,H6,12000,12,Fell,1834,29.48333,75.5,"(29.48333, 75.5)"
14651,Lime Creek,"Iron, IAB-ung",20000,20,Found,1834,31.55,-87.51667,"(31.55, -87.51667)"
461,Aldsworth,LL5,700,0.7,Fell,1835,51.78333,-1.78333,"(51.78333, -1.78333)"
5328,Charlotte,"Iron, IVA",4300,4.3,Fell,1835,36.16667,-87.33333,"(36.16667, -87.33333)"
4893,Aubres,Aubrite,800,0.8,Fell,1836,44.38333,5.16667,"(44.38333, 5.16667)"
15438,Mascombes,L6,1000,1,Fell,1836,45.36667,1.86667,"(45.36667, 1.86667)"
15370,Macau,H5,1500,1.5,Fell,1836,-5.2,-36.66667,"(-5.2, -36.66667)"
24257,Wichita County,"Iron, IAB-MG",145000,145,Found,1836,34.06667,-98.91667,"(34.06667, -98.91667)"
10912,Gibeon,"Iron, IVA",26000000,26000,Found,1836,-25.5,18,"(-25.5, 18.0)"
10051,Esnandes,L6,1500,1.5,Fell,1837,46.25,-1.1,"(46.25, -1.1)"
11207,Gross-Divina,H5,10500,10.5,Fell,1837,49.26667,18.71667,"(49.26667, 18.71667)"
30366,Yonozu,H4/5,31650,31.65,Fell,1837,37.75,139,"(37.75, 139.0)"
5450,Cosby's Creek,"Iron, IAB-MG",960000,960,Found,1837,35.78333,-83.25,"(35.78333, -83.25)"
5387,Coahuila,"Iron, IIAB",2100000,2100,Found,1837,28.7,-102.73333,"(28.7, -102.73333)"
12222,Kaee,H5,230,0.23,Fell,1838,27.25,79.96667,"(27.25, 79.96667)"
16729,Montlivault,L6,500,0.5,Fell,1838,47.63333,1.58333,"(47.63333, 1.58333)"
23646,Slobodka (of P. Partsch),L6,950,0.95,Found,1838,55,35,"(55.0, 35.0)"
23602,Simbirsk (of P. Partsch),OC,1500,1.5,Found,1838,54.3,48.4,"(54.3, 48.4)"
427,Akbarpur,H4,1800,1.8,Fell,1838,29.71667,77.95,"(29.71667, 77.95)"
5397,Cold Bokkeveld,CM2,5200,5.2,Fell,1838,-33.13333,19.38333,"(-33.13333, 19.38333)"
5320,Chandakapur,L5,8800,8.8,Fell,1838,20.26667,76.01667,"(20.26667, 76.01667)"
14664,Little Piney,L5,491,0.491,Fell,1839,37.91667,-92.08333,"(37.91667, -92.08333)"
2347,Asheville,"Iron, IIIAB",800,0.8,Found,1839,35.58333,-82.53333,"(35.58333, -82.53333)"
5066,Black Mountain,"Iron, IAB-MG",800,0.8,Found,1839,35.58333,-82.35,"(35.58333, -82.35)"
23650,Smithland,"Iron, IVA",5000,5,Found,1839,37.13333,-88.4,"(37.13333, -88.4)"
18906,Putnam County,"Iron, IVA",32700,32.7,Found,1839,33.25,-83.25,"(33.25, -83.25)"
8,Abo,H,1.2,0.0012,Found,1840,60.43333,22.3,"(60.43333, 22.3)"
24103,Uden,LL7,710,0.71,Fell,1840,51.65,5.61667,"(51.65, 5.61667)"
12256,Karakol,LL6,3000,3,Fell,1840,47.21667,81.01667,"(47.21667, 81.01667)"
5308,Cereseto,H5,6460,6.46,Fell,1840,45.08333,8.3,"(45.08333, 8.3)"
23654,Smithville,"Iron, IAB-MG",70500,70.5,Found,1840,35.98333,-85.85,"(35.98333, -85.85)"
5282,Carthage,"Iron, IIIAB",127000,127,Found,1840,36.26667,-85.98333,"(36.26667, -85.98333)"
15388,Magura,"Iron, IAB-MG",150000,150,Found,1840,49.33333,19.48333,"(49.33333, 19.48333)"
11426,Grüneberg,H4,1000,1,Fell,1841,51.93333,15.5,"(51.93333, 15.5)"
23082,St. Christophe-la-Chartreuse,L6,5500,5.5,Fell,1841,46.95,-1.5,"(46.95, -1.5)"
18803,Petropavlovsk,"Iron, ungrouped",7000,7,Found,1841,53.35,87.18333,"(53.35, 87.18333)"
5332,Château-Renard,L6,30000,30,Fell,1841,47.93333,2.91667,"(47.93333, 2.91667)"
4900,Aumieres,L6,2000,2,Fell,1842,44.33333,3.23333,"(44.33333, 3.23333)"
4946,Barea,Mesosiderite-A1,3200,3.2,Fell,1842,42.38333,-2.5,"(42.38333, -2.5)"
4916,Babb's Mill (Troost's Iron),"Iron, ungrouped",6400,6.4,Found,1842,36.3,-82.88333,"(36.3, -82.88333)"
16640,Milena,L6,10000,10,Fell,1842,46.18333,16.1,"(46.18333, 16.1)"
15403,Manegaon,Diogenite,50,0.05,Fell,1843,20.96667,76.1,"(20.96667, 76.1)"
5027,Berdyansk,L6,2250,2.25,Found,1843,46.75,36.81667,"(46.75, 36.81667)"
12332,Klein-Wenden,H6,3250,3.25,Fell,1843,51.6,10.8,"(51.6, 10.8)"
5059,Bishopville,Aubrite,6000,6,Fell,1843,34.16667,-80.28333,"(34.16667, -80.28333)"
24165,Verkhne Tschirskaia,H5,8000,8,Fell,1843,48.41667,43.2,"(48.41667, 43.2)"
24135,Utrecht,L6,9700,9.7,Fell,1843,52.11667,5.18333,"(52.11667, 5.18333)"
12309,Killeter,H6,140,0.14,Fell,1844,54.66667,-7.66667,"(54.66667, -7.66667)"
5451,Cosina,H5,1200,1.2,Fell,1844,21.16667,-100.86667,"(21.16667, -100.86667)"
10078,Favars,H5,1500,1.5,Fell,1844,44.38333,2.81667,"(44.38333, 2.81667)"
22779,Ruff's Mountain,"Iron, IIIAB",53070,53.07,Found,1844,34.3,-81.4,"(34.3, -81.4)"
12749,Le Teilleul,Howardite,780,0.78,Fell,1845,48.53333,-0.86667,"(48.53333, -0.86667)"
12748,Le Pressoir,H5,3000,3,Fell,1845,47.16667,0.43333,"(47.16667, 0.43333)"
4951,Barratta,L4,200000,200,Found,1845,-35.3,144.56667,"(-35.3, 144.56667)"
12066,Jackson County,"Iron, IIIAB",450,0.45,Found,1846,36.41667,-85.5,"(36.41667, -85.5)"
5260,Cape Girardeau,H6,2300,2.3,Fell,1846,37.26667,-89.58333,"(37.26667, -89.58333)"
2351,Assam,L5,2700,2.7,Found,1846,26,92,"(26.0, 92.0)"
16726,Monte Milone,L5,3130,3.13,Fell,1846,43.26667,13.35,"(43.26667, 13.35)"
23460,Schönenberg,L6,8000,8,Fell,1846,48.11667,10.46667,"(48.11667, 10.46667)"
6637,Deep Springs,"Iron, ungrouped",11500,11.5,Found,1846,36.5,-79.75,"(36.5, -79.75)"
16949,Netschaëvo,"Iron, IIE-an",250000,250,Found,1846,54.23333,35.15,"(54.23333, 35.15)"
16877,Murfreesboro,"Iron, ungrouped",8600,8.6,Found,1847,35.83333,-86.41667,"(35.83333, -86.41667)"
23612,Singhur,Pallasite?,14180,14.18,Found,1847,18.31667,73.91667,"(18.31667, 73.91667)"
15424,Marion (Iowa),L6,28400,28.4,Fell,1847,41.9,-91.6,"(41.9, -91.6)"
5133,Braunau,"Iron, IIAB",39000,39,Fell,1847,50.6,16.3,"(50.6, 16.3)"
23474,Seeläsgen,"Iron, IAB-MG",102000,102,Found,1847,52.26667,15.55,"(52.26667, 15.55)"
5293,Castine,L6,94,0.094,Fell,1848,44.38333,-68.75,"(44.38333, -68.75)"
23621,Ski,L6,850,0.85,Fell,1848,59.73333,10.86667,"(59.73333, 10.86667)"
6699,Dharwar,OC,1800,1.8,Fell,1848,14.88333,75.6,"(14.88333, 75.6)"
15429,Marmande,L5,3000,3,Fell,1848,44.5,0.15,"(44.5, 0.15)"
10835,Fukue,Iron,7.3,0.0073,Found,1849,32.7,128.85,"(32.7, 128.85)"
16720,Monroe,H4,8600,8.6,Fell,1849,35.25,-80.5,"(35.25, -80.5)"
5343,Chesterville,"Iron, IIAB",16500,16.5,Found,1849,34.7,-81.2,"(34.7, -81.2)"
5116,Botetourt County,Iron,500,0.5,Found,1850,37.5,-79.75,"(37.5, -79.75)"
18838,Pittsburg,"Iron, IAB-MG",600,0.6,Found,1850,40.43333,-80,"(40.43333, -80.0)"
23113,Salt River,"Iron, IIC",3600,3.6,Found,1850,37.95,-85.78333,"(37.95, -85.78333)"
23498,Seneca Falls,"Iron, IIIAB",4000,4,Found,1850,42.91667,-76.78333,"(42.91667, -76.78333)"
23521,Shalka,Diogenite,4000,4,Fell,1850,23.1,87.3,"(23.1, 87.3)"
23461,Schwetz,"Iron, IIIAB",21500,21.5,Found,1850,53.4,18.45,"(53.4, 18.45)"
12286,Kesen,H4,135000,135,Fell,1850,38.98333,141.61667,"(38.98333, 141.61667)"
24061,Tucson,"Iron, ungrouped",975000,975,Found,1850,31.85,-110.96667,"(31.85, -110.96667)"
22363,Quincay,L6,65,0.065,Fell,1851,46.6,0.25,"(46.6, 0.25)"
11466,Gütersloh,H3/4,1000,1,Fell,1851,51.91667,8.38333,"(51.91667, 8.38333)"
17959,Nulles,H6,5000,5,Fell,1851,41.63333,0.75,"(41.63333, 0.75)"
5462,Cranberry Plains,"Iron, IVA",90,0.09,Found,1852,37.23333,-80.73333,"(37.23333, -80.73333)"
5181,Bustee,Aubrite,1500,1.5,Fell,1852,26.78333,82.83333,"(26.78333, 82.83333)"
15389,Mainz,L6,1700,1.7,Found,1852,50,8.26667,"(50.0, 8.26667)"
5113,Borkut,L5,7000,7,Fell,1852,48.15,24.28333,"(48.15, 24.28333)"
30358,Yatoor,H5,13600,13.6,Fell,1852,14.3,79.76667,"(14.3, 79.76667)"
16628,Mezö-Madaras,L3.7,22700,22.7,Fell,1852,46.5,25.73333,"(46.5, 25.73333)"
22643,Rodeo,"Iron, IID",44000,44,Found,1852,25.33333,-104.66667,"(25.33333, -104.66667)"
5363,Chupaderos,"Iron, IIIAB",24300000,24300,Found,1852,27,-105.1,"(27.0, -105.1)"
7752,Duruma,L6,577,0.577,Fell,1853,-4,39.5,"(-4.0, 39.5)"
24122,Union County,"Iron, IC",6800,6.8,Found,1853,34.75,-84,"(34.75, -84.0)"
23476,Segowlie,LL6,6930,6.93,Fell,1853,26.75,84.78333,"(26.75, 84.78333)"
10917,Girgenti,L6,18000,18,Fell,1853,37.31667,13.56667,"(37.31667, 13.56667)"
23891,Tazewell,"Iron, IAB-sLH",27000,27,Found,1853,36.43333,-83.75,"(36.43333, -83.75)"
23774,Tabarz,"Iron, IAB-MG",150,0.15,Found,1854,50.88333,10.51667,"(50.88333, 10.51667)"
18003,Oktibbeha County,"Iron, IAB-ung",156,0.156,Found,1854,33.5,-89,"(33.5, -89.0)"
10034,Emmitsburg,"Iron, IIIAB?",450,0.45,Found,1854,39.71667,-77.3,"(39.71667, -77.3)"
14655,Linum,L6,1862,1.862,Fell,1854,52.75,12.9,"(52.75, 12.9)"
23178,Sarepta,"Iron, IAB-MG",14000,14,Found,1854,48.48333,44.81667,"(48.48333, 44.81667)"
24166,Verkhne Udinsk,"Iron, IIIAB",18000,18,Found,1854,54.76667,113.98333,"(54.76667, 113.98333)"
7738,Duel Hill (1854),"Iron, IVA",21800,21.8,Found,1854,35.85,-82.7,"(35.85, -82.7)"
15381,Madoc,"Iron, IIIAB",168000,168,Found,1854,44.5,-77.46667,"(44.5, -77.46667)"
5463,Cranbourne,"Iron, IAB-MG",8600000,8600,Found,1854,-38.1,145.3,"(-38.1, 145.3)"
4907,Avilez,H,146,0.146,Fell,1855,25,-103.5,"(25.0, -103.5)"
23083,St. Denis Westrem,L6,700,0.7,Fell,1855,51.05,3.75,"(51.05, 3.75)"
22792,Sabetmahet,H5,1250,1.25,Fell,1855,27.43333,82.08333,"(27.43333, 82.08333)"
18801,Petersburg,Eucrite-pmict,1800,1.8,Fell,1855,35.3,-86.63333,"(35.3, -86.63333)"
17989,Oesel,L6,6000,6,Fell,1855,58.5,23,"(58.5, 23.0)"
5135,Bremervörde,H/L3.9,7250,7.25,Fell,1855,53.4,9.1,"(53.4, 9.1)"
4950,Barranca Blanca,"Iron, IIE-an",12000,12,Found,1855,-28.08333,-69.33333,"(-28.08333, -69.33333)"
16915,Narraburra,"Iron, IIIAB",32200,32.2,Found,1855,-34.25,147.7,"(-34.25, 147.7)"
18023,Orange River (iron),"Iron, IIIAB",148800,148.8,Found,1855,-30,25,"(-30.0, 25.0)"
18058,Oviedo,H5,205,0.205,Fell,1856,43.4,-5.86667,"(43.4, -5.86667)"
6659,Denton County,"Iron, IIIAB",5400,5.4,Found,1856,33,-97,"(33.0, -97.0)"
24046,Trenzano,H3/4,11800,11.8,Fell,1856,45.46667,10,"(45.46667, 10.0)"
10167,Fort Pierre,"Iron, IIIAB",15900,15.9,Found,1856,44.35,-100.38333,"(44.35, -100.38333)"
11473,Hainholz,Mesosiderite-A4,16500,16.5,Found,1856,52.28333,8.91667,"(52.28333, 8.91667)"
16942,Nelson County,"Iron, IIIF",73030,73.03,Found,1856,37.75,-85.5,"(37.75, -85.5)"
12769,Les Ormes,L6,125,0.125,Fell,1857,48.35,3.25,"(48.35, 3.25)"
11875,Heredia,H5,1000,1,Fell,1857,10,-84.1,"(10.0, -84.1)"
23717,Stavropol,L6,1500,1.5,Fell,1857,45.05,41.98333,"(45.05, 41.98333)"
12741,Laurens County,"Iron, ungrouped",2150,2.15,Found,1857,34.5,-82.03333,"(34.5, -82.03333)"
12218,Kaba,CV3,3000,3,Fell,1857,47.35,21.3,"(47.35, 21.3)"
22358,Quenggouk,H4,6045,6.045,Fell,1857,17.76667,95.18333,"(17.76667, 95.18333)"
14673,Locust Grove,"Iron, IIAB",10000,10,Found,1857,33.33333,-84.1,"(33.33333, -84.1)"
17995,Ohaba,H5,16250,16.25,Fell,1857,46.06667,23.58333,"(46.06667, 23.58333)"
18108,Parnallee,LL3.6,77600,77.6,Fell,1857,9.23333,78.35,"(9.23333, 78.35)"
16694,Mincy,Mesosiderite-B4,89400,89.4,Found,1857,36.55,-93.1,"(36.55, -93.1)"
30411,Zmenj,Howardite,246,0.246,Fell,1858,51.83333,26.83333,"(51.83333, 26.83333)"
12231,Kakowa,L6,577,0.577,Fell,1858,45.13333,21.66667,"(45.13333, 21.66667)"
12175,Joel's Iron,"Iron, IIIAB",1300,1.3,Found,1858,-24,-69,"(-24.0, -69.0)"
24336,Wooster,"Iron, IAB-sLL",22700,22.7,Found,1858,40.76667,-81.95,"(40.76667, -81.95)"
4903,Ausson,L5,50000,50,Fell,1858,43.08333,0.58333,"(43.08333, 0.58333)"
4897,Augusta County,"Iron, IIIAB",76000,76,Found,1858,38.16667,-79.08333,"(38.16667, -79.08333)"
16715,Molina,H5,144000,144,Fell,1858,38.11667,-1.16667,"(38.11667, -1.16667)"
24045,Trenton,"Iron, IIIAB",505000,505,Found,1858,43.36667,-88.13333,"(43.36667, -88.13333)"
5032,Bethlehem,H,13.9,0.0139,Fell,1859,42.53333,-73.83333,"(42.53333, -73.83333)"
11842,Harrison County,L6,680,0.68,Fell,1859,38.25,-86.16667,"(38.25, -86.16667)"
5034,Beuste,L5,2000,2,Fell,1859,43.21667,-0.23333,"(43.21667, -0.23333)"
18093,Pampanga,L5,10500,10.5,Fell,1859,15.08333,120.7,"(15.08333, 120.7)"
24021,Tombigbee River,"Iron, IIG",43000,43,Found,1859,32.23333,-88.2,"(32.23333, -88.2)"
12382,Kusiali,L6,5,0.005,Fell,1860,29.68333,78.38333,"(29.68333, 78.38333)"
23663,Sologne,H5,54,0.054,Fell,1860,47.36667,1.73333,"(47.36667, 1.73333)"
12294,Kheragur,L6,450,0.45,Fell,1860,26.95,77.88333,"(26.95, 77.88333)"
463,Alessandria,H5,908,0.908,Fell,1860,44.88333,8.75,"(44.88333, 8.75)"
24171,Victoria West,"Iron, IAB-sHL",2950,2.95,Found,1860,-31.7,23.75,"(-31.7, 23.75)"
15433,Marshall County,"Iron, IIIAB",6800,6.8,Found,1860,37,-88.25,"(37.0, -88.25)"
5438,Coopertown,"Iron, IIIE",16800,16.8,Found,1860,36.43333,-87,"(36.43333, -87.0)"
7640,Dhurmsala,LL6,32000,32,Fell,1860,32.23333,76.46667,"(32.23333, 76.46667)"
12399,La Grange,"Iron, IVA",50800,50.8,Found,1860,38.4,-85.36667,"(38.4, -85.36667)"
5379,Cleveland,"Iron, IIIAB",115000,115,Found,1860,34.88333,-84.78333,"(34.88333, -84.78333)"
16953,New Concord,L6,230000,230,Fell,1860,40,-81.76667,"(40.0, -81.76667)"
15469,Meerut,H5,22,0.022,Fell,1861,29.01667,77.8,"(29.01667, 77.8)"
5251,Cañellas,H4,945,0.945,Fell,1861,41.25,1.66667,"(41.25, 1.66667)"
11206,Grosnaja,CV3,3500,3.5,Fell,1861,43.66667,45.38333,"(43.66667, 45.38333)"
5183,Butsura,H6,29000,29,Fell,1861,27.08333,84.08333,"(27.08333, 84.08333)"
14762,Lutschaunig's Stone,L6,100000,100,Found,1861,-27,-70,"(-27.0, -70.0)"
24142,Vaca Muerta,Mesosiderite-A1,3828000,3828,Found,1861,-25.75,-70.5,"(-25.75, -70.5)"
23508,Sevilla,LL4,180,0.18,Fell,1862,37.41667,-6,"(37.41667, -6.0)"
12340,Kokomo,"Iron, IVB",1800,1.8,Found,1862,40.48333,-86.36667,"(40.48333, -86.36667)"
15485,Menow,H4,10500,10.5,Fell,1862,53.18333,13.15,"(53.18333, 13.15)"
18899,Pulsora,H5,560,0.56,Fell,1863,23.36667,75.18333,"(23.36667, 75.18333)"
24022,Tomhannock Creek,H5,1500,1.5,Found,1863,42.88333,-73.6,"(42.88333, -73.6)"
15402,Manbhoom,LL6,1700,1.7,Fell,1863,23.05,86.7,"(23.05, 86.7)"
23584,Shytal,L6,3200,3.2,Fell,1863,24.33333,90.16667,"(24.33333, 90.16667)"
23085,St. Francois County,"Iron, IC",3600,3.6,Found,1863,37.75,-90.5,"(37.75, -90.5)"
23652,Smith's Mountain,"Iron, IIIAB",5000,5,Found,1863,36.41667,-80,"(36.41667, -80.0)"
5178,Buschhof,L6,5000,5,Fell,1863,46.45,25.78333,"(46.45, 25.78333)"
24199,Wairarapa Valley,H6,6000,6,Found,1863,-41.31667,175.13333,"(-41.31667, 175.13333)"
22788,Russel Gulch,"Iron, IIIAB",13200,13.2,Found,1863,39.8,-105.5,"(39.8, -105.5)"
24038,Tourinnes-la-Grosse,L6,14500,14.5,Fell,1863,50.78333,4.76667,"(50.78333, 4.76667)"
5442,Copiapo,"Iron, IAB-MG",20000,20,Found,1863,-27.3,-70.4,"(-27.3, -70.4)"
18822,Pillistfer,EL6,23250,23.25,Fell,1863,58.66667,25.73333,"(58.66667, 25.73333)"
17976,Obernkirchen,"Iron, IVA",41000,41,Found,1863,52.26667,9.1,"(52.26667, 9.1)"
24194,Wabar,"Iron, IIIAB",2550000,2550,Found,1863,21.49972,50.47222,"(21.49972, 50.47222)"
4919,Bacubirito,"Iron, ungrouped",22000000,22000,Found,1863,26.2,-107.83333,"(26.2, -107.83333)"
7659,Dolgovoli,L6,1600,1.6,Fell,1864,50.75,25.3,"(50.75, 25.3)"
16945,Nerft,L6,10250,10.25,Fell,1864,56.5,21.5,"(56.5, 21.5)"
18026,Orgueil,CI1,14000,14,Fell,1864,43.88333,1.38333,"(43.88333, 1.38333)"
23798,Tamentit,"Iron, IIIAB",510000,510,Found,1864,27.71667,-0.25,"(27.71667, -0.25)"
6643,Dellys,Iron,76,0.076,Found,1865,36.91667,3.91667,"(36.91667, 3.91667)"
24168,Vernon County,H6,1500,1.5,Fell,1865,43.5,-91.16667,"(43.5, -91.16667)"
10948,Gopalpur,H6,1600,1.6,Fell,1865,24.23333,89.05,"(24.23333, 89.05)"
7745,Dundrum,H5,2270,2.27,Fell,1865,52.55,-8.03333,"(52.55, -8.03333)"
16841,Muddoor,L5,4400,4.4,Fell,1865,12.63333,77.01667,"(12.63333, 77.01667)"
23530,Shergotty,Martian (shergottite),5000,5,Fell,1865,24.55,84.83333,"(24.55, 84.83333)"
23760,Supuhee,H6,7235,7.235,Fell,1865,26.71667,84.21667,"(26.71667, 84.21667)"
4899,Aumale,L6,50000,50,Fell,1865,36.16667,3.66667,"(36.16667, 3.66667)"
12072,Jamkheir,H6,22,0.022,Fell,1866,18.75,75.33333,"(18.75, 75.33333)"
22787,Rushville,L5,50,0.05,Found,1866,39.61667,-85.45,"(39.61667, -85.45)"
6638,Dehesa,"Iron, ungrouped",280,0.28,Found,1866,-33.5,-70.5,"(-33.5, -70.5)"
18858,Pokhra,H5,350,0.35,Fell,1866,26.71667,82.66667,"(26.71667, 82.66667)"
24104,Udipi,H5,3600,3.6,Fell,1866,13.48333,74.78333,"(13.48333, 74.78333)"
23092,St. Mesmin,LL6,8300,8.3,Fell,1866,48.45,3.93333,"(48.45, 3.93333)"
10176,Frankfort (iron),"Iron, IIIAB",10900,10.9,Found,1866,38.2,-84.83333,"(38.2, -84.83333)"
23667,Sone,H5,17100,17.1,Fell,1866,35.16667,135.33333,"(35.16667, 135.33333)"
5252,Cangas de Onis,H5,34000,34,Fell,1866,43.38333,-5.15,"(43.38333, -5.15)"
12211,Juncal,"Iron, IIIAB",104000,104,Found,1866,-26,-69.25,"(-26.0, -69.25)"
4982,Bear Creek,"Iron, IIIAB",227000,227,Found,1866,39.6,-105.3,"(39.6, -105.3)"
12335,Knyahinya,L/LL5,500000,500,Fell,1866,48.9,22.4,"(48.9, 22.4)"
4929,Ballarat,"Iron, IAB complex",15,0.015,Found,1867,-37.57083,143.82533,"(-37.57083, 143.82533)"
12296,Khetri,H6,100,0.1,Fell,1867,28.01667,75.81667,"(28.01667, 75.81667)"
4894,Auburn,"Iron, IIG",3630,3.63,Found,1867,32.63333,-85.5,"(32.63333, -85.5)"
18045,Otomi,H,6510,6.51,Fell,1867,38.4,140.35,"(38.4, 140.35)"
23778,Tadjera,L5,9000,9,Fell,1867,36.18333,5.41667,"(36.18333, 5.41667)"
23466,Scottsville,"Iron, IIAB",10000,10,Found,1867,36.76667,-86.16667,"(36.76667, -86.16667)"
5188,Cacaria,"Iron, IIIAB",41400,41.4,Found,1867,24.5,-104.8,"(24.5, -104.8)"
5285,Casas Grandes,"Iron, IIIAB",1545000,1545,Found,1867,30.4,-107.8,"(30.4, -107.8)"
18851,Pnompehn,L6,96,0.096,Fell,1868,11.58333,104.91667,"(11.58333, 104.91667)"
10177,Frankfort (stone),Howardite,650,0.65,Fell,1868,34.48333,-87.83333,"(34.48333, -87.83333)"
14675,Lodran,Lodranite,1000,1,Fell,1868,29.53333,71.8,"(29.53333, 71.8)"
5513,Daniel's Kuil,EL6,1064,1.064,Fell,1868,-28.2,24.56667,"(-28.2, 24.56667)"
16759,Moti-ka-nagla,H6,1500,1.5,Fell,1868,26.83333,77.33333,"(26.83333, 77.33333)"
23626,Slavetic,H5,1708,1.708,Fell,1868,45.68333,15.6,"(45.68333, 15.6)"
5514,Danville,L6,2000,2,Fell,1868,34.4,-87.06667,"(34.4, -87.06667)"
10938,Goalpara,Ureilite,2700,2.7,Found,1868,26.16667,90.6,"(26.16667, 90.6)"
14715,Losttown,"Iron, IID",3000,3,Found,1868,34.25,-84.5,"(34.25, -84.5)"
23188,Sauguis,L6,4000,4,Fell,1868,43.15,-0.85,"(43.15, -0.85)"
18805,Pevensey,LL5,4300,4.3,Found,1868,-34.78333,144.66667,"(-34.78333, 144.66667)"
18030,Ornans,CO3.4,6000,6,Fell,1868,47.11667,6.15,"(47.11667, 6.15)"
23123,San Francisco del Mezquital,"Iron, IIAB",7500,7.5,Found,1868,23.48333,-104.36667,"(23.48333, -104.36667)"
16762,Motta di Conti,H4,9150,9.15,Fell,1868,45.2,8.5,"(45.2, 8.5)"
16806,Mount Vernon,"Pallasite, PMG",159000,159,Found,1868,36.93333,-87.4,"(36.93333, -87.4)"
18901,Pultusk,H5,250000,250,Fell,1868,52.76667,21.26667,"(52.76667, 21.26667)"
30370,Yorktown (New York),L5,250,0.25,Fell,1869,41.28333,-73.81667,"(41.28333, -73.81667)"
14753,Lumpkin,L6,340,0.34,Fell,1869,32.03333,-84.76667,"(32.03333, -84.76667)"
23112,Salt Lake City,H5,875,0.875,Found,1869,40.91667,-111.66667,"(40.91667, -111.66667)"
2302,Angra dos Reis (stone),Angrite,1500,1.5,Fell,1869,-22.96667,-44.31667,"(-22.96667, -44.31667)"
12353,Krähenberg,LL5,16500,16.5,Fell,1869,49.32694,7.46472,"(49.32694, 7.46472)"
11878,Hessle,H5,20000,20,Fell,1869,59.85,17.66667,"(59.85, 17.66667)"
24011,Tjabe,H6,20000,20,Fell,1869,-7.08333,111.53333,"(-7.08333, 111.53333)"
23535,Shingle Springs,"Iron, ungrouped",39000,39,Found,1869,38.66667,-120.93333,"(38.66667, -120.93333)"
23716,Staunton,"Iron, IIIE",43500,43.5,Found,1869,38.21667,-79.05,"(38.21667, -79.05)"
12284,Kernouve,H6,80000,80,Fell,1869,48.11667,-3.08333,"(48.11667, -3.08333)"
5263,Caperr,"Iron, IIIAB",113900,113.9,Found,1869,-45.28333,-70.48333,"(-45.28333, -70.48333)"
12047,Iron Creek,"Iron, IIIAB",175000,175,Found,1869,53,-112,"(53.0, -112.0)"
5366,Cincinnati,"Iron, IIAB",1500,1.5,Found,1870,39.11667,-84.5,"(39.11667, -84.5)"
11992,Ibbenbüren,Diogenite,2000,2,Fell,1870,52.28333,7.7,"(52.28333, 7.7)"
16935,Nedagolla,"Iron, ungrouped",4500,4.5,Fell,1870,18.68333,83.48333,"(18.68333, 83.48333)"
5185,Cabezo de Mayo,L/LL6,25000,25,Fell,1870,37.98333,-1.16667,"(37.98333, -1.16667)"
12022,Ilimaes (iron),"Iron, IIIAB",51700,51.7,Found,1870,-26,-70,"(-26.0, -70.0)"
15463,McKinney,L4,150000,150,Found,1870,33.18333,-96.71667,"(33.18333, -96.71667)"
17981,Oczeretna,H4,130,0.13,Found,1871,49.31667,31.51667,"(49.31667, 31.51667)"
22641,Roda,Diogenite,400,0.4,Fell,1871,42.3,0.55,"(42.3, 0.55)"
5479,Cuba,"Iron, IAB?",1500,1.5,Found,1871,22,-80,"(22.0, -80.0)"
12408,Laborel,H5,3833,3.833,Fell,1871,44.28333,5.58333,"(44.28333, 5.58333)"
23472,Searsmont,H5,5400,5.4,Fell,1871,44.36667,-69.2,"(44.36667, -69.2)"
4935,Bandong,LL6,11500,11.5,Fell,1871,-6.91667,107.6,"(-6.91667, 107.6)"
12045,Iquique,"Iron, IVB",12500,12.5,Found,1871,-20.18333,-69.73333,"(-20.18333, -69.73333)"
7757,Dyalpur,Ureilite,300,0.3,Fell,1872,26.25,82,"(26.25, 82.0)"
18034,Orvinio,H6,3400,3.4,Fell,1872,42.13333,12.93333,"(42.13333, 12.93333)"
16943,Nenntmannsdorf,"Iron, IIAB",12500,12.5,Found,1872,50.96667,13.95,"(50.96667, 13.95)"
23898,Tennasilm,L4,28500,28.5,Fell,1872,58.03333,26.95,"(58.03333, 26.95)"
12455,Lancé,CO3.5,51700,51.7,Fell,1872,47.7,1.06667,"(47.7, 1.06667)"
23160,Santa Apolonia,"Iron, IIIAB",1316000,1316,Found,1872,19.21667,-98.3,"(19.21667, -98.3)"
23161,Santa Barbara,L4,400,0.4,Fell,1873,-29.2,-51.86667,"(-29.2, -51.86667)"
462,Aleppo,L6,3200,3.2,Fell,1873,36.23333,37.13333,"(36.23333, 37.13333)"
24185,Virba,L6,3600,3.6,Fell,1873,43.53333,22.63333,"(43.53333, 22.63333)"
12085,Jhung,L5,5900,5.9,Fell,1873,31.3,72.38333,"(31.3, 72.38333)"
7739,Duel Hill (1873),"Iron, IAB-MG",11300,11.3,Found,1873,35.85,-82.7,"(35.85, -82.7)"
12288,Khairpur,EL6,13600,13.6,Fell,1873,29.53333,72.3,"(29.53333, 72.3)"
5362,Chulafinnee,"Iron, IIIAB",16220,16.22,Found,1873,33.5,-85.66667,"(33.5, -85.66667)"
24195,Waconda,L6,50000,50,Found,1873,39.33333,-98.16667,"(39.33333, -98.16667)"
23694,Ssyromolotovo,"Iron, IIIAB",217000,217,Found,1873,58.61667,98.93333,"(58.61667, 98.93333)"
5190,Cachiyuyal,"Iron, IIIE",2500,2.5,Found,1874,-25,-69.5,"(-25.0, -69.5)"
12282,Kerilis,H5,5000,5,Fell,1874,48.4,-3.3,"(48.4, -3.3)"
5291,Castalia,H5,7300,7.3,Fell,1874,36.08333,-78.06667,"(36.08333, -78.06667)"
5432,Coolac,"Iron, IAB-MG",19280,19.28,Found,1874,-34.96667,148.125,"(-34.96667, 148.125)"
5182,Butler,"Iron, ungrouped",41000,41,Found,1874,38.3,-94.36667,"(38.3, -94.36667)"
23509,Sevrukovo,L5,101000,101,Fell,1874,50.61667,36.6,"(50.61667, 36.6)"
16892,Nagaria,Eucrite-cm,20,0.02,Fell,1875,26.98333,78.21667,"(26.98333, 78.21667)"
464,Alexander County,"Iron, IAB complex",192,0.192,Found,1875,35.75,-81.25,"(35.75, -81.25)"
10080,Feid Chair,H4,380,0.38,Fell,1875,36.88333,8.45,"(36.88333, 8.45)"
30413,Zsadany,H5,552,0.552,Fell,1875,46.93333,21.5,"(46.93333, 21.5)"
16747,Mornans,H5,1300,1.3,Fell,1875,44.6,5.13333,"(44.6, 5.13333)"
23503,Serrania de Varas,"Iron, IVA",1500,1.5,Found,1875,-24.55,-69.06667,"(-24.55, -69.06667)"
23616,Sitathali,H5,1600,1.6,Fell,1875,20.91667,82.58333,"(20.91667, 82.58333)"
30351,Yardea,"Iron, IAB-MG",3290,3.29,Found,1875,-32.45,135.55,"(-32.45, 135.55)"
5256,Canyon City,"Iron, IIIAB",8600,8.6,Found,1875,40.9,-123.1,"(40.9, -123.1)"
15472,Mejillones,"Iron, IIAB",14830,14.83,Found,1875,-23.1,-70.5,"(-23.1, -70.5)"
11901,Homestead,L5,230000,230,Fell,1875,41.8,-91.86667,"(41.8, -91.86667)"
17001,North Chile,"Iron, IIAB",300000,300,Found,1875,-23,-69,"(-23.0, -69.0)"
23162,Santa Catharina,"Iron, IAB-ung",7000000,7000,Found,1875,-26.21667,-48.6,"(-26.21667, -48.6)"
16986,Nochtuisk,Iron,8,0.008,Found,1876,59.98333,117.58333,"(59.98333, 117.58333)"
24164,Verkhne Dnieprovsk,"Iron, IIE",70,0.07,Found,1876,48.63333,34.36667,"(48.63333, 34.36667)"
22637,Rochester,H6,340,0.34,Fell,1876,41.08333,-86.28333,"(41.08333, -86.28333)"
12207,Judesegeri,H6,680,0.68,Fell,1876,12.85,76.8,"(12.85, 76.8)"
24154,Vavilovka,LL6,1932,1.932,Fell,1876,46.15,32.83333,"(46.15, 32.83333)"
22773,Rowton,"Iron, IIIAB",3500,3.5,Fell,1876,52.76667,-2.51667,"(52.76667, -2.51667)"
15408,Mantos Blancos,"Iron, IVA",10300,10.3,Found,1876,-23.45,-70.11667,"(-23.45, -70.11667)"
23712,Ställdalen,H5,34000,34,Fell,1876,59.93333,14.95,"(59.93333, 14.95)"
4915,Babb's Mill (Blake's Iron),"Iron, ungrouped",136000,136,Found,1876,36.3,-82.88333,"(36.3, -82.88333)"
16843,Mühlau,OC,5,0.005,Found,1877,47.28333,11.41667,"(47.28333, 11.41667)"
5037,Bhagur,L6,18,0.018,Fell,1877,20.88333,74.83333,"(20.88333, 74.83333)"
12173,Jodzie,Howardite,30,0.03,Fell,1877,55.7,24.4,"(55.7, 24.4)"
11986,Hungen,H6,112,0.112,Fell,1877,50.3,8.91667,"(50.3, 8.91667)"
5286,Casey County,"Iron, IAB-MG",723,0.723,Found,1877,37.25,-85,"(37.25, -85.0)"
24215,Warrenton,CO3.7,1600,1.6,Fell,1877,38.68333,-91.15,"(38.68333, -91.15)"
5474,Cronstad,H5,3650,3.65,Fell,1877,-27.7,27.3,"(-27.7, 27.3)"
5500,Cynthiana,L/LL4,6000,6,Fell,1877,38.4,-84.25,"(38.4, -84.25)"
23661,Soko-Banja,LL4,80000,80,Fell,1877,43.66667,21.86667,"(43.66667, 21.86667)"
14752,Lujan,Iron,50,0.05,Found,1878,-34.66667,-59.36667,"(-34.66667, -59.36667)"
12394,La Charca,OC,399,0.399,Fell,1878,20.66667,-101.28333,"(20.66667, -101.28333)"
30367,York (iron),"Iron, IIIAB",835,0.835,Found,1878,40.75,-97.5,"(40.75, -97.5)"
11824,Haraiya,Eucrite-mmict,1000,1,Fell,1878,26.8,82.53333,"(26.8, 82.53333)"
15489,Mern,L6,4000,4,Fell,1878,55.05,12.06667,"(55.05, 12.06667)"
5511,Dandapur,L6,5650,5.65,Fell,1878,26.91667,83.96667,"(26.91667, 83.96667)"
22376,Rakovka,L6,9000,9,Fell,1878,52.98333,37.03333,"(52.98333, 37.03333)"
23989,Tieschitz,H/L3.6,28000,28,Fell,1878,49.6,17.11667,"(49.6, 17.11667)"
5087,Bluff (a),L5,153300,153.3,Found,1878,29.87861,-96.87222,"(29.87861, -96.87222)"
5246,Campo de Pucara (iron),Iron,41,0.041,Found,1879,-27.66667,-67.11667,"(-27.66667, -67.11667)"
16969,Niagara,"Iron, IAB-sLL",115,0.115,Found,1879,48,-97.93333,"(48.0, -97.93333)"
24020,Tomatlan,H6,900,0.9,Fell,1879,20.16667,-105.21667,"(20.16667, -105.21667)"
14647,Lick Creek,"Iron, IIAB",1240,1.24,Found,1879,35.66667,-80.25,"(35.66667, -80.25)"
10936,Gnadenfrei,H5,1750,1.75,Fell,1879,50.66667,16.76667,"(50.66667, 16.76667)"
12056,Itapicuru-Mirim,H5,2024,2.024,Fell,1879,-3.4,-44.33333,"(-3.4, -44.33333)"
15392,Makarewa,L6,2300,2.3,Found,1879,-46.31667,168.4,"(-46.31667, 168.4)"
12392,La Bécasse,L6,2800,2.8,Fell,1879,47.08333,1.75,"(47.08333, 1.75)"
16989,Nogoya,CM2,4000,4,Fell,1879,-32.36667,-59.83333,"(-32.36667, -59.83333)"
12236,Kalumbi,L6,4500,4.5,Fell,1879,17.83333,73.98333,"(17.83333, 73.98333)"
6656,Densmore (1879),L6,37200,37.2,Found,1879,39.65,-99.68333,"(39.65, -99.68333)"
5509,Dalton,"Iron, IIIAB",53000,53,Found,1879,34.8,-84.98333,"(34.8, -84.98333)"
23897,Tenham,L6,160000,160,Fell,1879,-25.73333,142.95,"(-25.73333, 142.95)"
10059,Estherville,Mesosiderite-A3/4,320000,320,Fell,1879,43.41667,-94.83333,"(43.41667, -94.83333)"
1,Aachen,L5,21,0.021,Fell,1880,50.775,6.08333,"(50.775, 6.08333)"
5344,Chetrinahatti,Stone-uncl,72,0.072,Fell,1880,14.5,76.5,"(14.5, 76.5)"
23789,Takenouchi,H5,720,0.72,Fell,1880,35.38333,134.9,"(35.38333, 134.9)"
22398,Ratyn,Stone-uncl,910,0.91,Fell,1880,52.2,17.98333,"(52.2, 17.98333)"
24323,Wittekrantz,L5,2200,2.2,Fell,1880,-32.5,23,"(-32.5, 23.0)"
5402,Colfax,"Iron, IAB-ung",2300,2.3,Found,1880,35.3,-81.73333,"(35.3, -81.73333)"
2294,Andhara,Stone-uncl,2700,2.7,Fell,1880,26.58333,85.56667,"(26.58333, 85.56667)"
16844,Muizenberg,L6,4610,4.61,Found,1880,-34.1,18.46667,"(-34.1, 18.46667)"
14644,Lexington County,"Iron, IAB-MG",4760,4.76,Found,1880,34,-81.25,"(34.0, -81.25)"
11194,Greenbrier County,"Iron, IIIAB",5000,5,Found,1880,37.83333,-80.31667,"(37.83333, -80.31667)"
5050,Bingera,"Iron, IIAB",10841,10.841,Found,1880,-29.88333,150.56667,"(-29.88333, 150.56667)"
7761,Eagle Station,"Pallasite, PES",36000,36,Found,1880,38.61667,-84.96667,"(38.61667, -84.96667)"
24162,Veramin,Mesosiderite-B2,54000,54,Fell,1880,35.33333,51.63333,"(35.33333, 51.63333)"
12062,Ivanpah,"Iron, IIIAB",58000,58,Found,1880,35.33333,-115.31667,"(35.33333, -115.31667)"
18832,Piquetberg,H,37,0.037,Fell,1881,-32.86667,18.71667,"(-32.86667, 18.71667)"
16632,Middlesbrough,L6,1600,1.6,Fell,1881,54.56667,-1.16667,"(54.56667, -1.16667)"
18068,Pacula,L6,3400,3.4,Fell,1881,21.05,-99.3,"(21.05, -99.3)"
11208,Grossliebenthal,L6,8000,8,Fell,1881,46.35,30.58333,"(46.35, 30.58333)"
5453,Costilla Peak,"Iron, IIIAB",35500,35.5,Found,1881,36.83333,-105.23333,"(36.83333, -105.23333)"
5351,Chilkoot,"Iron, IIIAB",43000,43,Found,1881,59.33333,-136,"(59.33333, -136.0)"
24283,Winburg,"Iron, IC-an",50000,50,Found,1881,-28.5,27,"(-28.5, 27.0)"
23978,Thunda,"Iron, IIIAB",62100,62.1,Found,1881,-25.7,143.05,"(-25.7, 143.05)"
380,Admire,"Pallasite, PMG",180000,180,Found,1881,38.7,-96.1,"(38.7, -96.1)"
14656,Linville,"Iron, IAB-sHH",442,0.442,Found,1882,35.86667,-81.91667,"(35.86667, -81.91667)"
18834,Pirgunje,L6,842,0.842,Fell,1882,25.8,88.45,"(25.8, 88.45)"
18177,Pavlovka,Howardite,2000,2,Fell,1882,52.03333,43,"(52.03333, 43.0)"
23121,San Cristobal,"Iron, IAB-ung",5000,5,Found,1882,-23.43333,-69.5,"(-23.43333, -69.5)"
10836,Fukutomi,L5,11620,11.62,Fell,1882,33.18333,130.2,"(33.18333, 130.2)"
22389,Rancho de la Pila (1882),"Iron, IIIAB",46500,46.5,Found,1882,24.11667,-104.3,"(24.11667, -104.3)"
11880,Hex River Mountains,"Iron, IIAB",60000,60,Found,1882,-33.31667,19.61667,"(-33.31667, 19.61667)"
16709,Mocs,L5-6,300000,300,Fell,1882,46.8,24.03333,"(46.8, 24.03333)"
5136,Brenham,"Pallasite, PMG-an",4300000,4300,Found,1882,37.5825,-99.16361,"(37.5825, -99.16361)"
374,Adalia,Eucrite-mmict,1,0.001,Found,1883,36.9,30.68333,"(36.9, 30.68333)"
23600,Silverton (New South Wales),L6,350.7,0.3507,Found,1883,-31.88333,141.2,"(-31.88333, 141.2)"
23081,St. Caprais-de-Quinsac,L6,360,0.36,Fell,1883,44.75,0.05,"(44.75, 0.05)"
10037,Enon,"Iron, ungrouped",763,0.763,Found,1883,39.86667,-83.95,"(39.86667, -83.95)"
16966,Ngawi,LL3.6,1393,1.393,Fell,1883,-7.45,111.41667,"(-7.45, 111.41667)"
12081,Jenny's Creek,"Iron, IAB-MG",12000,12,Found,1883,37.9,-82.38333,"(37.9, -82.38333)"
10955,Grand Rapids,"Iron, ungrouped",51700,51.7,Found,1883,42.96667,-85.76667,"(42.96667, -85.76667)"
23172,São Julião de Moreira,"Iron, IIAB",162000,162,Found,1883,41.76611,-8.58361,"(41.76611, -8.58361)"
466,Alfianello,L6,228000,228,Fell,1883,45.26667,10.15,"(45.26667, 10.15)"
10057,Estacado,H6,290000,290,Found,1883,33.9,-101.75,"(33.9, -101.75)"
18835,Pirthalla,H6,1161,1.161,Fell,1884,29.58333,76,"(29.58333, 76.0)"
5319,Chañaral,"Iron, IIIAB",1207,1.207,Found,1884,-26.5,-70.25,"(-26.5, -70.25)"
5448,Corrizatillo,"Iron, IAB complex",1328,1.328,Found,1884,-26.03333,-70.33333,"(-26.03333, -70.33333)"
24094,Tysnes Island,H4,19860,19.86,Fell,1884,60,5.61667,"(60.0, 5.61667)"
11813,Hammond,"Iron, ungrouped",24000,24,Found,1884,44.91667,-92.43333,"(44.91667, -92.43333)"
12174,Joe Wright Mountain,"Iron, IIIAB",42600,42.6,Found,1884,35.76667,-91.5,"(35.76667, -91.5)"
15487,Merceditas,"Iron, IIIAB",42900,42.9,Found,1884,-26.33333,-70.28333,"(-26.33333, -70.28333)"
10935,Glorieta Mountain,"Pallasite, PMG-an",148000,148,Found,1884,35.6,-105.8,"(35.6, -105.8)"
7652,Djati-Pengilon,H6,166000,166,Fell,1884,-7.5,111.5,"(-7.5, 111.5)"
12341,Kokstad,"Iron, IIIE",341000,341,Found,1884,-30.55,29.41667,"(-30.55, 29.41667)"
30374,Youndegin,"Iron, IAB-MG",3800000,3800,Found,1884,-32.1,117.71667,"(-32.1, 117.71667)"
5321,Chandpur,L6,1100,1.1,Fell,1885,27.28333,79.05,"(27.28333, 79.05)"
15453,Mazapil,"Iron, IAB-sLL",4000,4,Fell,1885,24.68333,-101.68333,"(24.68333, -101.68333)"
12071,Jamestown,"Iron, IVA",4000,4,Found,1885,46.61667,-98.5,"(46.61667, -98.5)"
18174,Pavlodar (pallasite),"Pallasite, PMG-an",4500,4.5,Found,1885,51.16667,77.33333,"(51.16667, 77.33333)"
18903,Puquios,"Iron, IID",6580,6.58,Found,1885,-27.15,-69.91667,"(-27.15, -69.91667)"
14749,Lucky Hill,"Iron, IIIAB",20500,20.5,Found,1885,17.9,-77.63333,"(17.9, -77.63333)"
23872,Tanokami Mountain,"Iron, IIIE",174000,174,Found,1885,34.91667,135.96667,"(34.91667, 135.96667)"
4948,Barntrup,LL4,17,0.017,Fell,1886,52,9.1,"(52.0, 9.1)"
5128,Bradford Woods,L,762,0.762,Fell,1886,40.5,-80.08333,"(40.5, -80.08333)"
17933,Novo-Urei,Ureilite,1900,1.9,Fell,1886,54.81667,46,"(54.81667, 46.0)"
2353,Assisi,H5,2000,2,Fell,1886,43.03333,12.55,"(43.03333, 12.55)"
16902,Nammianthal,H5,4500,4.5,Fell,1886,12.28333,79.2,"(12.28333, 79.2)"
24025,Tonganoxie,"Iron, IIIAB",11800,11.8,Found,1886,39.08333,-95.11667,"(39.08333, -95.11667)"
22369,Rafrüti,"Iron, ungrouped",18200,18.2,Found,1886,47,7.83333,"(47.0, 7.83333)"
12390,Kyushu,L6,45000,45,Fell,1886,32.03333,130.63333,"(32.03333, 130.63333)"
5186,Cabin Creek,"Iron, IIIAB",48500,48.5,Fell,1886,35.5,-93.5,"(35.5, -93.5)"
12372,Kulnine,L6,55300,55.3,Found,1886,-34.15,141.78333,"(-34.15, 141.78333)"
23131,San Pedro Springs,L6,72,0.072,Found,1887,29.5,-98.5,"(29.5, -98.5)"
7727,Doyleville,H5,112,0.112,Found,1887,38.41667,-106.58333,"(38.41667, -106.58333)"
6621,De Cewsville,H6,340,0.34,Fell,1887,43,-80,"(43.0, -80.0)"
12451,Lalitpur,L6,372,0.372,Fell,1887,24.45,78.56667,"(24.45, 78.56667)"
18809,Phu Hong,H4,500,0.5,Fell,1887,11.25,108.58333,"(11.25, 108.58333)"
5043,Bielokrynitschie,H4,1900,1.9,Fell,1887,50.13333,27.16667,"(50.13333, 27.16667)"
470,Algoma,"Iron, IAB-sHL",4100,4.1,Found,1887,44.65,-87.46667,"(44.65, -87.46667)"
23597,Silver Crown,"Iron, IAB-MG",11600,11.6,Found,1887,41.23333,-104.98333,"(41.23333, -104.98333)"
11896,Holland's Store,"Iron, IIAB",12200,12.2,Found,1887,34.36667,-85.43333,"(34.36667, -85.43333)"
18830,Pipe Creek,H6,13600,13.6,Found,1887,29.68333,-98.91667,"(29.68333, -98.91667)"
24203,Waldron Ridge,"Iron, IAB complex",13600,13.6,Found,1887,36.63333,-83.83333,"(36.63333, -83.83333)"
12029,Indian Valley,"Iron, IIAB",14100,14.1,Found,1887,36.93333,-80.5,"(36.93333, -80.5)"
12032,Indio Rico,H6,15000,15,Found,1887,-38.33333,-60.88333,"(-38.33333, -60.88333)"
16750,Morristown,Mesosiderite-A3,16300,16.3,Found,1887,36.2,-83.38333,"(36.2, -83.38333)"
18094,Pan de Azucar,"Iron, IAB complex",19500,19.5,Found,1887,-26.5,-69.5,"(-26.5, -69.5)"
12274,Kendall County,"Iron, IAB-ung",21000,21,Found,1887,29.4,-98.5,"(29.4, -98.5)"
23122,San Emigdio,H4,36000,36,Found,1887,36,-119,"(36.0, -119.0)"
5461,Crab Orchard,Mesosiderite-A1,48500,48.5,Found,1887,35.83333,-84.91667,"(35.83333, -84.91667)"
5277,Carlton,"Iron, IAB-sLM",81200,81.2,Found,1887,31.91667,-98.03333,"(31.91667, -98.03333)"
16779,Mount Joy,"Iron, IIAB",384000,384,Found,1887,39.78333,-77.21667,"(39.78333, -77.21667)"
17979,Ochansk,H4,500000,500,Fell,1887,57.78333,55.26667,"(57.78333, 55.26667)"
10179,Franklinville,L6,108,0.108,Found,1888,38.5,-100,"(38.5, -100.0)"
23973,Thomson,L6,218,0.218,Found,1888,33.46667,-82.48333,"(33.46667, -82.48333)"
5267,Carcote,H5,392,0.392,Found,1888,-24,-69,"(-24.0, -69.0)"
16693,Minas Gerais,L6,1224,1.224,Found,1888,-18.5,-44,"(-18.5, -44.0)"
14680,Lonaconing,"Iron, IAB-sHL",1400,1.4,Found,1888,39.41667,-79.15,"(39.41667, -79.15)"
11817,Haniet-el-Beguel,"Iron, IAB complex",2000,2,Found,1888,32.48333,4.4,"(32.48333, 4.4)"
23979,Thurlow,"Iron, IIIAB",5500,5.5,Found,1888,44.75,-77.58333,"(44.75, -77.58333)"
5458,Cowra,"Iron, ungrouped",5560,5.56,Found,1888,-33.85,148.68333,"(-33.85, 148.68333)"
18833,Pirapora,"Iron, IIAB",6175,6.175,Found,1888,-17.3,-45,"(-17.3, -45.0)"
24235,Welland,"Iron, IIIAB",8200,8.2,Found,1888,43.01667,-79.21667,"(43.01667, -79.21667)"
10013,Eli Elwah,L6,15200,15.2,Found,1888,-34.5,144.71667,"(-34.5, 144.71667)"
12402,La Primitiva,"Iron, IIG",27400,27.4,Found,1888,-19.91667,-69.81667,"(-19.91667, -69.81667)"
5003,Bella Roca,"Iron, IIIAB",33000,33,Found,1888,24.9,-105.4,"(24.9, -105.4)"
5057,Bischtübe,"Iron, IAB-sLL",48250,48.25,Found,1888,51.95,62.2,"(51.95, 62.2)"
23086,St. Genevieve County,"Iron, IIIF",244500,244.5,Found,1888,37.96667,-90.31667,"(37.96667, -90.31667)"
2292,Ameca-Ameca,Iron,1.2,0.0012,Found,1889,20.58333,-104.06667,"(20.58333, -104.06667)"
10088,Ferguson,OC,220,0.22,Fell,1889,36.1,-81.41667,"(36.1, -81.41667)"
12048,Iron River,"Iron, IVA",1420,1.42,Found,1889,46.07944,-88.55972,"(46.07944, -88.55972)"
16710,Moctezuma,"Iron, IAB-sLL",1700,1.7,Found,1889,29.8,-109.66667,"(29.8, -109.66667)"
6697,Dexter,"Iron, IIIAB",1724,1.724,Found,1889,33.81667,-97,"(33.81667, -97.0)"
11907,Hopper,"Iron, IIIAB",1800,1.8,Found,1889,36.55,-79.78333,"(36.55, -79.78333)"
24041,Travis County (b),H4,5900,5.9,Found,1889,30.55556,-97.95278,"(30.55556, -97.95278)"
16634,Mighei,CM2,8000,8,Fell,1889,48.06667,30.96667,"(48.06667, 30.96667)"
14755,Lundsgård,L6,11000,11,Fell,1889,56.21667,13.03333,"(56.21667, 13.03333)"
10044,Ergheo,L5,20000,20,Fell,1889,1.16667,44.16667,"(1.16667, 44.16667)"
12078,Jelica,LL6,34000,34,Fell,1889,43.83333,20.44167,"(43.83333, 20.44167)"
2317,Apoala,"Iron, IIIAB",85000,85,Found,1889,17.7,-97,"(17.7, -97.0)"
10915,Gilgoin,H5,147000,147,Found,1889,-30.38333,147.2,"(-30.38333, 147.2)"
24040,Travis County (a),H5,175400,175.4,Found,1889,30.3,-97.7,"(30.3, -97.7)"
12280,Kenton County,"Iron, IIIAB",194000,194,Found,1889,38.81667,-84.6,"(38.81667, -84.6)"
16927,Nawapali,CM2,105,0.105,Fell,1890,21.25,83.66667,"(21.25, 83.66667)"
12230,Kakangari,K3,350,0.35,Fell,1890,12.38333,78.51667,"(12.38333, 78.51667)"
23744,Summit,"Iron, IIAB",1000,1,Found,1890,34.2,-86.48333,"(34.2, -86.48333)"
11852,Hassi-Jekna,"Iron, IAB-sHL",1250,1.25,Fell,1890,28.95,0.81667,"(28.95, 0.81667)"
5077,Blue Tier,Iron,1400,1.4,Found,1890,-41.18333,148.03333,"(-41.18333, 148.03333)"
24248,Western Arkansas,"Iron, IVA",1750,1.75,Found,1890,35,-94,"(35.0, -94.0)"
16894,Nagy-Vázsony,"Iron, IAB-sLL",2000,2,Found,1890,46.98333,17.7,"(46.98333, 17.7)"
23087,St. Germain-du-Pinel,H6,4000,4,Fell,1890,48.01667,-1.15,"(48.01667, -1.15)"
5403,Collescipoli,H5,5000,5,Fell,1890,42.53333,12.61667,"(42.53333, 12.61667)"
16703,Misshof,H5,5800,5.8,Fell,1890,56.66667,23,"(56.66667, 23.0)"
5139,Bridgewater,"Iron, IID",13600,13.6,Found,1890,35.71667,-81.86667,"(35.71667, -81.86667)"
24182,Villedieu,H4,14000,14,Found,1890,47.91667,4.35,"(47.91667, 4.35)"
10173,Franceville,"Iron, IIIAB",18800,18.8,Found,1890,38.81667,-104.61667,"(38.81667, -104.61667)"
23536,Shirahagi,"Iron, IVA",22700,22.7,Found,1890,36.7,137.36667,"(36.7, 137.36667)"
10074,Farmington,L5,89400,89.4,Fell,1890,39.75,-97.03333,"(39.75, -97.03333)"
10119,Forest City,H5,152000,152,Fell,1890,43.25,-93.66667,"(43.25, -93.66667)"
22794,Sacramento Mountains,"Iron, IIIAB",237200,237.2,Found,1890,32.91667,-104.66667,"(32.91667, -104.66667)"
16746,Morland,H6,295000,295,Found,1890,39.33333,-100.06667,"(39.33333, -100.06667)"
4898,Augustinovka,"Iron, IIIAB",400000,400,Found,1890,48.06667,35.08333,"(48.06667, 35.08333)"
12087,Jianshi,"Iron, IIIAB",600000,600,Fell,1890,30.80833,109.5,"(30.80833, 109.5)"
12201,Jonesboro,"Iron, IVA",30,0.03,Found,1891,36.3,-82.46667,"(36.3, -82.46667)"
11440,Guêa,Stone-uncl,1915,1.915,Fell,1891,43.76667,20.23333,"(43.76667, 20.23333)"
23903,Ternera,"Iron, IVB",1980,1.98,Found,1891,-27.33333,-69.8,"(-27.33333, -69.8)"
4924,Bald Eagle,"Iron, IIIAB",3200,3.2,Found,1891,41.28333,-77.05,"(41.28333, -77.05)"
12318,Kingston,"Iron, ungrouped",12900,12.9,Found,1891,32.9,-107.73333,"(32.9, -107.73333)"
24034,Toubil River,"Iron, IIIAB",22000,22,Found,1891,55.88333,89.1,"(55.88333, 89.1)"
10165,Forsyth County,"Iron, IIAB",22700,22.7,Found,1891,36.1,-80.2,"(36.1, -80.2)"
12027,Indarch,EH4,27000,27,Fell,1891,39.75,46.66667,"(39.75, 46.66667)"
14694,Long Island,L6,564000,564,Found,1891,39.93333,-99.6,"(39.93333, -99.6)"
5257,Canyon Diablo,"Iron, IAB-MG",30000000,30000,Found,1891,35.05,-111.03333,"(35.05, -111.03333)"
5476,Cross Roads,H5,167,0.167,Fell,1892,35.63333,-78.13333,"(35.63333, -78.13333)"
16748,Morradal,"Iron, ungrouped",2750,2.75,Found,1892,62,7.66667,"(62.0, 7.66667)"
5388,Cobija,H6,6530,6.53,Found,1892,-22.56667,-70.25,"(-22.56667, -70.25)"
23174,Saotome,"Iron, IVA",10880,10.88,Found,1892,36.5,137,"(36.5, 137.0)"
16734,Moonbi,"Iron, IIIF",13200,13.2,Found,1892,-30.91667,151.28333,"(-30.91667, 151.28333)"
4936,Bansur,L6,15000,15,Fell,1892,27.7,76.33333,"(27.7, 76.33333)"
4974,Bath,H4,21000,21,Fell,1892,45.41667,-98.31667,"(45.41667, -98.31667)"
6620,Dayton,"Iron, IAB-sLH",26300,26.3,Found,1892,39.75,-84.16667,"(39.75, -84.16667)"
11439,Guareña,H6,39000,39,Fell,1892,38.73333,-6.01667,"(38.73333, -6.01667)"
4931,Ballinoo,"Iron, IIC",42200,42.2,Found,1892,-27.7,115.76667,"(-27.7, 115.76667)"
22644,Roebourne,"Iron, IIIAB",86860,86.86,Found,1892,-22.33333,118,"(-22.33333, 118.0)"
5039,Bherai,L6,100,0.1,Fell,1893,20.83333,71.46667,"(20.83333, 71.46667)"
12339,Kofa,"Iron, IAB-sHH",490,0.49,Found,1893,33.5,-114,"(33.5, -114.0)"
18888,Pricetown,L6,900,0.9,Fell,1893,39.11667,-83.85,"(39.11667, -83.85)"
23675,South Bend,"Pallasite, PMG",2500,2.5,Found,1893,41.65,-86.21667,"(41.65, -86.21667)"
18882,Prairie Dog Creek,H3.7,2900,2.9,Found,1893,39.63333,-100.5,"(39.63333, -100.5)"
30380,Zabrodje,L6,3000,3,Fell,1893,55.18333,27.91667,"(55.18333, 27.91667)"
18796,Persimmon Creek,"Iron, IAB-sLM",5000,5,Found,1893,35.05,-84.23333,"(35.05, -84.23333)"
4986,Beaver Creek,H5,14000,14,Fell,1893,51.16667,-117.33333,"(51.16667, -117.33333)"
18850,Plymouth,"Iron, IIIAB",14000,14,Found,1893,41.33333,-86.31667,"(41.33333, -86.31667)"
12267,Kaufman,L5,23000,23,Found,1893,32.58333,-96.41667,"(32.58333, -96.41667)"
18032,Oroville,"Iron, IIIAB",24500,24.5,Found,1893,39.68333,-121.63333,"(39.68333, -121.63333)"
7794,El Capitan,"Iron, IIIAB",27500,27.5,Found,1893,33.5,-105.5,"(33.5, -105.5)"
14708,Los Martinez,L6,25,0.025,Fell,1894,38,-0.83333,"(38.0, -0.83333)"
23190,Savtschenskoje,LL4,2500,2.5,Fell,1894,47.21667,29.86667,"(47.21667, 29.86667)"
11885,Hildreth,L5,3060,3.06,Found,1894,40.33333,-99.03333,"(40.33333, -99.03333)"
23116,Sam's Valley,"Iron, IIIAB",6920,6.92,Found,1894,42.53333,-122.875,"(42.53333, -122.875)"
5254,Canton,"Iron, IIIAB",7030,7.03,Found,1894,34.2,-84.48333,"(34.2, -84.48333)"
5111,Bori,L6,8600,8.6,Fell,1894,21.95,78.03333,"(21.95, 78.03333)"
2333,Arlington,"Iron, IIE-an",8940,8.94,Found,1894,44.6,-94.1,"(44.6, -94.1)"
10107,Fisher,L6,17600,17.6,Fell,1894,47.81667,-96.85,"(47.81667, -96.85)"
12083,Jerome (Kansas),L4,29600,29.6,Found,1894,38.76667,-100.73333,"(38.76667, -100.73333)"
16946,Ness County (1894),L6,82000,82,Found,1894,38.5,-99.6,"(38.5, -99.6)"
11864,Hayden Creek,"Iron, IIIAB",270,0.27,Found,1895,45,-114,"(45.0, -114.0)"
18091,Pampa del Infierno,L6,896,0.896,Found,1895,-26.68333,-61.08333,"(-26.68333, -61.08333)"
5060,Bishunpur,LL3.15,1039,1.039,Fell,1895,25.38333,82.6,"(25.38333, 82.6)"
22640,Rockhampton,Stone-uncl,1641,1.641,Fell,1895,-23.38333,150.51667,"(-23.38333, 150.51667)"
18035,Oscuro Mountains,"Iron, IAB-MG",3600,3.6,Found,1895,33.63333,-106.38333,"(33.63333, -106.38333)"
16893,Nagy-Borové,L5,6100,6.1,Fell,1895,49.16667,19.5,"(49.16667, 19.5)"
2290,Ambapur Nagla,H5,6400,6.4,Fell,1895,27.66667,78.25,"(27.66667, 78.25)"
22552,Reed City,"Iron, ungrouped",20000,20,Found,1895,43.86667,-85.51667,"(43.86667, -85.51667)"
16987,Nocoleche,"Iron, IC-an",20000,20,Found,1895,-29.86667,144.21667,"(-29.86667, 144.21667)"
17973,Oakley (stone),H6,27700,27.7,Found,1895,38.95,-101.01667,"(38.95, -101.01667)"
4884,Atemajac,L6,94.2,0.0942,Fell,1896,20.06667,-103.66667,"(20.06667, -103.66667)"
15382,Madrid,L6,400,0.4,Fell,1896,40.41667,-3.71667,"(40.41667, -3.71667)"
18046,Ottawa,LL6,840,0.84,Fell,1896,38.6,-95.21667,"(38.6, -95.21667)"
12772,Lesves,L6,2000,2,Fell,1896,50.36667,4.73333,"(50.36667, 4.73333)"
22765,Rosario,"Iron, IAB-MG",2700,2.7,Found,1896,14.6,-88.68333,"(14.6, -88.68333)"
14751,Luis Lopez,"Iron, IIIAB",7000,7,Found,1896,34,-106.96667,"(34.0, -106.96667)"
5456,Covert,H5,61000,61,Found,1896,39.2,-98.78333,"(39.2, -98.78333)"
14705,Loreto,"Iron, IIIAB",94800,94.8,Found,1896,26.01667,-111.36667,"(26.01667, -111.36667)"
2332,Arispe,"Iron, IC",683000,683,Found,1896,30.33333,-109.98333,"(30.33333, -109.98333)"
6642,Delhi,L5,0.8,0.0008,Fell,1897,28.56667,77.25,"(28.56667, 77.25)"
16782,Mount Morris (New York),H,12.5,0.0125,Found,1897,42.7,-77.88333,"(42.7, -77.88333)"
12246,Kangra Valley,H5,400,0.4,Fell,1897,32.08333,76.3,"(32.08333, 76.3)"
16982,Nio,H3-4,467,0.467,Fell,1897,34.2,131.56667,"(34.2, 131.56667)"
11883,Higashi-koen,H5,750,0.75,Fell,1897,33.6,130.43333,"(33.6, 130.43333)"
16626,Meuselbach,L6,870,0.87,Fell,1897,50.58333,11.1,"(50.58333, 11.1)"
10851,Gambat,L6,6400,6.4,Fell,1897,27.35,68.53333,"(27.35, 68.53333)"
12456,Lancon,H6,7000,7,Fell,1897,43.75,5.11667,"(43.75, 5.11667)"
14709,Los Reyes,"Iron, IIIAB",19500,19.5,Found,1897,19.26667,-97.28333,"(19.26667, -97.28333)"
16872,Mungindi,"Iron, IAB-sLM",51300,51.3,Found,1897,-28.93333,148.95,"(-28.93333, 148.95)"
23117,San Angelo,"Iron, IIIAB",88000,88,Found,1897,31.41667,-100.35,"(31.41667, -100.35)"
30396,Zavid,L6,95000,95,Fell,1897,44.4,19.11667,"(44.4, 19.11667)"
5102,Bond Springs,H6,6.2,0.0062,Found,1898,-23.5,133.83333,"(-23.5, 133.83333)"
2297,Andryushki,L6,26.6,0.0266,Found,1898,49.65,29.63333,"(49.65, 29.63333)"
16707,Mjelleim,H,100.7,0.1007,Fell,1898,61.73333,5.93333,"(61.73333, 5.93333)"
30389,Zaisho,"Pallasite, PMG-an",330,0.33,Fell,1898,33.7,133.8,"(33.7, 133.8)"
15419,Mariaville,Iron,340,0.34,Fell,1898,42.71667,-99.38333,"(42.71667, -99.38333)"
16784,Mount Ouray,"Iron, IID",900,0.9,Found,1898,38.41667,-106.21667,"(38.41667, -106.21667)"
12046,Iredell,"Iron, IIAB",1500,1.5,Found,1898,31.96667,-97.86667,"(31.96667, -97.86667)"
2295,Andover,L6,3200,3.2,Fell,1898,44.61667,-70.75,"(44.61667, -70.75)"
2283,Alt Bela,"Iron, IID",4000,4,Found,1898,49.76667,18.25,"(49.76667, 18.25)"
15435,Mart,"Iron, IVA",7140,7.14,Found,1898,31.5,-96.88333,"(31.5, -96.88333)"
22360,Quesa,"Iron, IAB-ung",10750,10.75,Fell,1898,39,-0.66667,"(39.0, -0.66667)"
5304,Cedartown,"Iron, IIAB",11300,11.3,Found,1898,34.01667,-85.26667,"(34.01667, -85.26667)"
12338,Kodaikanal,"Iron, IIE",15900,15.9,Found,1898,10.26667,77.4,"(10.26667, 77.4)"
23590,Sierra Gorda,"Iron, IIAB",26000,26,Found,1898,-22.9,-69.35,"(-22.9, -69.35)"
5016,Bendock,Pallasite,27000,27,Found,1898,-37.15,148.91667,"(-37.15, 148.91667)"
24227,Weaver Mountains,"Iron, IVB",38800,38.8,Found,1898,34.25,-112.75,"(34.25, -112.75)"
2335,Armanty,"Iron, IIIE",28000000,28000,Found,1898,47,88,"(47.0, 88.0)"
5294,Castray River,Iron,10,0.01,Found,1899,-41.5,145.41667,"(-41.5, 145.41667)"
10906,Gerona,H5,148,0.148,Found,1899,41.96667,2.81667,"(41.96667, 2.81667)"
18792,Peramiho,Eucrite-mmict,165,0.165,Fell,1899,-10.66667,35.5,"(-10.66667, 35.5)"
7707,Donga Kohrod,H6,230,0.23,Fell,1899,21.86667,82.45,"(21.86667, 82.45)"
22390,Rancho de la Presa,H5,300,0.3,Fell,1899,19.86667,-100.81667,"(19.86667, -100.81667)"
23761,Surprise Springs,"Iron, IAB-sLL",1500,1.5,Found,1899,34.16667,-115.91667,"(34.16667, -115.91667)"
12024,Illinois Gulch,"Iron, ungrouped",2500,2.5,Found,1899,46.68333,-112.55,"(46.68333, -112.55)"
22550,Red Willow,Iron,2750,2.75,Found,1899,40.25,-100.5,"(40.25, -100.5)"
15386,Magnesia,"Iron, IAB-sHL",5000,5,Fell,1899,37.86667,27.51667,"(37.86667, 27.51667)"
12324,Kissij,H5,5500,5.5,Found,1899,54.86667,50.88333,"(54.86667, 50.88333)"
30412,Zomba,L6,7500,7.5,Fell,1899,-15.18333,35.28333,"(-15.18333, 35.28333)"
16881,Murphy,"Iron, IIAB",7700,7.7,Found,1899,35.1,-84.03333,"(35.1, -84.03333)"
2276,Allegan,H5,32000,32,Fell,1899,42.53333,-85.88333,"(42.53333, -85.88333)"
5064,Bjurböle,L/LL4,330000,330,Fell,1899,60.4,25.8,"(60.4, 25.8)"
16995,Norin-Shibir,"Iron, ungrouped",3.5,0.0035,Found,1900,51.85,107.91667,"(51.85, 107.91667)"
23482,Selcany,Iron,20,0.02,Found,1900,49.75,14.41667,"(49.75, 14.41667)"
12255,Karagai,L6,115,0.115,Found,1900,51.11667,57.91667,"(51.11667, 57.91667)"
18055,Ovambo,L6,121.5,0.1215,Fell,1900,-18,16,"(-18.0, 16.0)"
10033,Emmaville,Eucrite-mmict,127,0.127,Fell,1900,-29.46667,151.61667,"(-29.46667, 151.61667)"
10163,Forsbach,H6,240,0.24,Fell,1900,50.95,7.31667,"(50.95, 7.31667)"
23723,Sterling,Pallasite,679.5,0.6795,Found,1900,40.6,-103.18333,"(40.6, -103.18333)"
12765,Leonovka,L6,700,0.7,Fell,1900,52.26667,32.85,"(52.26667, 32.85)"
5107,Boogaldi,"Iron, IVA",2000,2,Found,1900,-31.15,149.11667,"(-31.15, 149.11667)"
10081,Felix,CO3.3,3200,3.2,Fell,1900,32.53333,-87.16667,"(32.53333, -87.16667)"
22594,Rhine Villa,"Iron, IIIE",3325,3.325,Found,1900,-34.66667,139.28333,"(-34.66667, 139.28333)"
17990,Ofehértó,L6,3750,3.75,Fell,1900,47.88333,22.03333,"(47.88333, 22.03333)"
465,Alexandrovsky,H4,9251,9.251,Fell,1900,50.95,31.81667,"(50.95, 31.81667)"
12401,La Porte,"Iron, IIIAB",14540,14.54,Found,1900,41.6,-86.71667,"(41.6, -86.71667)"
5303,Cedar (Texas),H4,26000,26,Found,1900,29.82806,-96.90861,"(29.82806, -96.90861)"
16968,N'Goureyma,"Iron, ungrouped",37500,37.5,Fell,1900,13.85,-4.38333,"(13.85, -4.38333)"
10867,Gay Gulch,"Iron, IAB-sHH",483,0.483,Found,1901,63.91667,-139.33333,"(63.91667, -139.33333)"
5341,Chervettaz,L5,705,0.705,Fell,1901,46.55,6.81667,"(46.55, 6.81667)"
18172,Paulding County,Iron,725,0.725,Found,1901,34,-84.8,"(34.0, -84.8)"
11873,Hendersonville,L5,6000,6,Found,1901,35.31667,-81.46667,"(35.31667, -81.46667)"
23611,Sindhri,H5,8400,8.4,Fell,1901,26.21667,69.55,"(26.21667, 69.55)"
11989,Hvittis,EL6,14000,14,Fell,1901,61.18333,22.68333,"(61.18333, 22.68333)"
2348,Ashfork,"Iron, IAB-MG",27000,27,Found,1901,35.25,-112.5,"(35.25, -112.5)"
23109,Saline,H5,30800,30.8,Found,1901,39.4,-100.4,"(39.4, -100.4)"
18808,Phillips County (stone),L6,57900,57.9,Fell,1901,40,-99.25,"(40.0, -99.25)"
5265,Caratash,LL6,8,0.008,Fell,1902,38.5,27,"(38.5, 27.0)"
17939,Nuleri,"Iron, IIIAB",120,0.12,Found,1902,-27.83333,123.86667,"(-27.83333, 123.86667)"
370,Achiras,L6,780,0.78,Fell,1902,-33.16667,-64.95,"(-33.16667, -64.95)"
12241,Kamsagar,L6,1293,1.293,Fell,1902,14.18333,75.8,"(14.18333, 75.8)"
5477,Crumlin,L5,4255,4.255,Fell,1902,54.61667,-6.21667,"(54.61667, -6.21667)"
5352,Chinautla,"Iron, IVA-an",5720,5.72,Found,1902,14.5,-90.5,"(14.5, -90.5)"
16766,Mount Browne,H6,11300,11.3,Fell,1902,-29.8,141.7,"(-29.8, 141.7)"
24157,Veliko-Nikolaevsky Priisk,"Iron, IIIAB",24267,24.267,Found,1902,53.83333,97.33333,"(53.83333, 97.33333)"
15426,Marjalahti,"Pallasite, PMG",45000,45,Fell,1902,61.5,30.5,"(61.5, 30.5)"
10103,Finmarken,"Pallasite, PMG",78300,78.3,Found,1902,70,24,"(70.0, 24.0)"
4975,Bath Furnace,L6,86000,86,Fell,1902,38.25,-83.75,"(38.25, -83.75)"
24269,Willamette,"Iron, IIIAB",15500000,15500,Found,1902,45.36667,-122.58333,"(45.36667, -122.58333)"
15486,Menziswyl,L5,28.9,0.0289,Fell,1903,46.81867,7.21817,"(46.81867, 7.21817)"
22597,Rich Mountain,L6,668,0.668,Fell,1903,35.03333,-83.03333,"(35.03333, -83.03333)"
24095,Tyumen,Iron,750,0.75,Fell,1903,57.16667,65.53333,"(57.16667, 65.53333)"
24145,Valdinizza,L6,1004,1.004,Fell,1903,44.86667,9.15,"(44.86667, 9.15)"
7658,Dokachi,H5,3840,3.84,Fell,1903,23.5,90.33333,"(23.5, 90.33333)"
18893,Providence,"Iron, IIIAB",6804,6.804,Found,1903,38.56667,-85.23333,"(38.56667, -85.23333)"
30357,Yarroweyah,"Iron, IIAB",9600,9.6,Found,1903,-35.98333,145.58333,"(-35.98333, 145.58333)"
23901,Teocaltiche,Iron,10000,10,Found,1903,21.43333,-102.56667,"(21.43333, -102.56667)"
16772,Mount Dyrring,Pallasite,11300,11.3,Found,1903,-32.33333,151.2,"(-32.33333, 151.2)"
12454,Lancaster County,Iron,13000,13,Found,1903,40.66667,-96.75,"(40.66667, -96.75)"
23090,St. Mark's,EH5,13780,13.78,Fell,1903,-32.01667,27.41667,"(-32.01667, 27.41667)"
5047,Billings,"Iron, IIIAB",24500,24.5,Found,1903,37.06667,-93.55,"(37.06667, -93.55)"
5497,Cumpas,"Iron, IIIAB",28600,28.6,Found,1903,30,-109.66667,"(30.0, -109.66667)"
12248,Kansas City (1903),H5,36000,36,Found,1903,39.1,-94.63333,"(39.1, -94.63333)"
24096,Uberaba,H5,40000,40,Fell,1903,-19.81667,-48.78333,"(-19.81667, -48.78333)"
12065,Jackalsfontein,L6,48000,48,Fell,1903,-32.5,21.9,"(-32.5, 21.9)"
24138,Uwet,"Iron, IIAB",54000,54,Found,1903,5.28333,8.25,"(5.28333, 8.25)"
24013,Tlacotepec,"Iron, IVB",71000,71,Found,1903,18.65,-97.55,"(18.65, -97.55)"
12334,Knowles,"Iron, IIIAB",161000,161,Found,1903,36.9,-100.21667,"(36.9, -100.21667)"
23794,Tamarugal,"Iron, IIIAB",320000,320,Found,1903,-20.8,-69.66667,"(-20.8, -69.66667)"
6615,Davis Mountains,"Iron, IIIAB",689000,689,Found,1903,30.75,-104.25,"(30.75, -104.25)"
12352,Kouga Mountains,"Iron, IIIAB",1173000,1173,Found,1903,-33.61667,24,"(-33.61667, 24.0)"
12757,Lefroy,Iron,3.3,0.0033,Found,1904,-40.73333,146.96667,"(-40.73333, 146.96667)"
4947,Barnaul,H5,23.2,0.0232,Fell,1904,52.73333,84.08333,"(52.73333, 84.08333)"
18896,Puerta de Arauco,Iron,1533,1.533,Found,1904,-28.88333,-66.66667,"(-28.88333, -66.66667)"
14658,Lipovsky,"Pallasite, PMG",3500,3.5,Found,1904,49.08333,42.51667,"(49.08333, 42.51667)"
18000,Okano,"Iron, IIAB",4742,4.742,Fell,1904,35.08333,135.2,"(35.08333, 135.2)"
11450,Gumoschnik,H5,5700,5.7,Fell,1904,42.9,24.7,"(42.9, 24.7)"
5318,Chambord,"Iron, IIIAB",6600,6.6,Found,1904,48.45,-72.06667,"(48.45, -72.06667)"
23529,Shelburne,L5,18600,18.6,Fell,1904,44.05,-80.16667,"(44.05, -80.16667)"
6641,Delegate,"Iron, IIIAB-an",27700,27.7,Found,1904,-37,149.03333,"(-37.0, 149.03333)"
18894,Puente del Zacate,"Iron, IIIAB",30790,30.79,Found,1904,27.86667,-101.5,"(27.86667, -101.5)"
4921,Bagnone,"Iron, IIIAB",48000,48,Found,1904,44.31667,9.98333,"(44.31667, 9.98333)"
12351,Kota-Kota,EH3,334,0.334,Found,1905,-13.01667,34.2,"(-13.01667, 34.2)"
12250,Kanzaki,H,483,0.483,Found,1905,33.3,130.36667,"(33.3, 130.36667)"
16700,Minnichhof,OC,550,0.55,Fell,1905,47.7,16.6,"(47.7, 16.6)"
24019,Tomakovka,LL6,600,0.6,Fell,1905,47.85,34.76667,"(47.85, 34.76667)"
23462,Scott City,H5,2135,2.135,Found,1905,38.46667,-100.93333,"(38.46667, -100.93333)"
5041,Bholghati,Howardite,2500,2.5,Fell,1905,22.08333,86.9,"(22.08333, 86.9)"
5436,Coon Butte,L6,2750,2.75,Found,1905,35,-111,"(35.0, -111.0)"
12734,Las Salinas,"Iron, IIIAB",3515,3.515,Found,1905,-23,-69.5,"(-23.0, -69.5)"
10863,Garraf,L6,8800,8.8,Found,1905,41.26667,1.91667,"(41.26667, 1.91667)"
10020,Ellerslie,L5,10200,10.2,Found,1905,-28.9,146.76667,"(-28.9, 146.76667)"
23623,Skookum,"Iron, IVB",16000,16,Found,1905,63.91667,-139.33333,"(63.91667, -139.33333)"
12262,Karkh,L6,22000,22,Fell,1905,27.8,67.16667,"(27.8, 67.16667)"
7813,El Perdido,H5,30250,30.25,Found,1905,-38.68333,-61.1,"(-38.68333, -61.1)"
16711,Modoc (1905),L6,35000,35,Fell,1905,38.5,-101.1,"(38.5, -101.1)"
12321,Kirbyville,Eucrite-mmict,97.7,0.0977,Fell,1906,30.75,-95.95,"(30.75, -95.95)"
12305,Kijima (1906),Stone-uncl,331,0.331,Fell,1906,36.85,138.38333,"(36.85, 138.38333)"
12363,Krutikha,OC,845.2,0.8452,Fell,1906,56.8,77,"(56.8, 77.0)"
7642,Diep River,L6,1000,1,Fell,1906,-33.75,18.56667,"(-33.75, 18.56667)"
5068,Blackwell,L5,2381,2.381,Fell,1906,36.83333,-97.33333,"(36.83333, -97.33333)"
24187,Vishnupur,LL4-6,2437,2.437,Fell,1906,23.1,87.43333,"(23.1, 87.43333)"
15413,Marburg,Pallasite,3000,3,Found,1906,50.81667,8.76667,"(50.81667, 8.76667)"
12373,Kulp,H6,3719,3.719,Fell,1906,41.11667,45,"(41.11667, 45.0)"
10024,Elm Creek,H4,7000,7,Found,1906,38.5,-96.2,"(38.5, -96.2)"
18795,Perryville,"Iron, IIC",17500,17.5,Found,1906,37.73333,-89.85,"(37.73333, -89.85)"
7737,Duchesne,"Iron, IVA",22700,22.7,Found,1906,40.38333,-110.86667,"(40.38333, -110.86667)"
23486,Selma,H4,140600,140.6,Found,1906,32.4,-87,"(32.4, -87.0)"
16873,Muonionalusta,"Iron, IVA",230000,230,Found,1906,67.8,23.1,"(67.8, 23.1)"
16919,Näs,LL6,375,0.375,Found,1907,59.18333,12.21667,"(59.18333, 12.21667)"
7661,Domanitch,L5,438,0.438,Fell,1907,40,29,"(40.0, 29.0)"
56565,Fairburn,"Iron, IAB-ung",445,0.445,Found,1907,43.603,-103.026,"(43.603, -103.026)"
5122,Bowden,H5,603,0.603,Found,1907,-33,26.4,"(-33.0, 26.4)"
12760,Leighton,H5,877,0.877,Fell,1907,34.58333,-87.5,"(34.58333, -87.5)"
4928,Bali,CV3,1000,1,Fell,1907,5.38333,16.38333,"(5.38333, 16.38333)"
23604,Simondium,Mesosiderite-A4,1600,1.6,Found,1907,-33.85,18.95,"(-33.85, 18.95)"
5377,Cleburne,"Iron, IVA",6800,6.8,Found,1907,32.31667,-97.41667,"(32.31667, -97.41667)"
5315,Chainpur,LL3.4,8200,8.2,Fell,1907,25.85,83.48333,"(25.85, 83.48333)"
23581,Shrewsbury,"Iron, IAB-sLL",12000,12,Found,1907,39.76667,-76.66667,"(39.76667, -76.66667)"
16763,Mount Ayliff,"Iron, IAB-MG",13600,13.6,Found,1907,-30.81667,29.35,"(-30.81667, 29.35)"
5094,Bodaibo,"Iron, IVA",15900,15.9,Found,1907,57.85,114.2,"(57.85, 114.2)"
16993,Norfolk,"Iron, IIIAB",23000,23,Found,1907,36.9,-76.3,"(36.9, -76.3)"
422,Ainsworth,"Iron, IIAB",80650,80.65,Found,1907,42.6,-99.8,"(42.6, -99.8)"
11985,Huizopa,"Iron, IVA",140000,140,Found,1907,28.9,-108.56667,"(28.9, -108.56667)"
11441,Guffey,"Iron, ungrouped",309000,309,Found,1907,38.76667,-105.51667,"(38.76667, -105.51667)"
12026,Imperial,H4,4,0.004,Found,1908,32.86667,-115.58333,"(32.86667, -115.58333)"
23108,Salina,Iron,235,0.235,Found,1908,38.98333,-111.85,"(38.98333, -111.85)"
23504,Sete Lagoas,H4,350,0.35,Fell,1908,-19.46667,-44.21667,"(-19.46667, -44.21667)"
18815,Pickens County,H6,400,0.4,Found,1908,34.5,-84.5,"(34.5, -84.5)"
17935,Novy-Projekt,OC,1001,1.001,Fell,1908,56,22,"(56.0, 22.0)"
4906,Avce,"Iron, IIAB",1230,1.23,Fell,1908,46,13.5,"(46.0, 13.5)"
30356,Yarri,"Iron, IIIAB",1500,1.5,Found,1908,-29.45,121.21667,"(-29.45, 121.21667)"
12245,Kangean,H5,1630,1.63,Fell,1908,-7,115.5,"(-7.0, 115.5)"
12227,Kagarlyk,L6,1900,1.9,Fell,1908,49.86667,30.83333,"(49.86667, 30.83333)"
16713,Mokoia,CV3,4500,4.5,Fell,1908,-39.63333,174.4,"(-39.63333, 174.4)"
18078,Palmersville,H5,9979,9.979,Found,1908,36.4665,-88.60283,"(36.4665, -88.60283)"
2334,Arltunga,"Iron, IID-an",18100,18.1,Found,1908,-23.33333,134.66667,"(-23.33333, 134.66667)"
22364,Quinn Canyon,"Iron, IIIAB",1450000,1450,Found,1908,38.08333,-115.53333,"(38.08333, -115.53333)"
5071,Blanket,L6,5100,5.1,Fell,1909,31.83333,-98.83333,"(31.83333, -98.83333)"
10914,Gifu,L6,14290,14.29,Fell,1909,35.53333,136.88333,"(35.53333, 136.88333)"
23902,Teplá,"Iron, IIIAB",17000,17,Found,1909,49.98333,12.86667,"(49.98333, 12.86667)"
11451,Gun Creek,"Iron, ungrouped",22700,22.7,Found,1909,34,-111,"(34.0, -111.0)"
11877,Hermitage Plains,L6,32000,32,Found,1909,-31.73333,146.4,"(-31.73333, 146.4)"
11849,Haskell,L5,36000,36,Found,1909,33.21333,-99.73167,"(33.21333, -99.73167)"
419,Ahumada,"Pallasite, PMG",52600,52.6,Found,1909,30.7,-105.5,"(30.7, -105.5)"
22397,Rateldraai,"Iron, IIIAB",549000,549,Found,1909,-28.83333,21.13333,"(-28.83333, 21.13333)"
16771,Mount Dooling,"Iron, IC",734000,734,Found,1909,-29.45,119.71667,"(-29.45, 119.71667)"
16878,Murnpeowie,"Iron, IC",1143000,1143,Found,1909,-29.58333,139.9,"(-29.58333, 139.9)"
12435,Lakangaon,Eucrite-mmict,212.5,0.2125,Fell,1910,21.86667,76.03333,"(21.86667, 76.03333)"
18072,Paitan,H6,515,0.515,Fell,1910,17.74333,120.45583,"(17.74333, 120.45583)"
5144,Britstown,"Iron, IAB-ung",544,0.544,Found,1910,-30.58333,23.55,"(-30.58333, 23.55)"
11429,Grzempach,H5,690,0.69,Fell,1910,52.86667,16.63333,"(52.86667, 16.63333)"
11848,Hashima,H4,1110.6,1.1106,Fell,1910,35.2945,136.70033,"(35.2945, 136.70033)"
5075,Blithfield,EL6,1830,1.83,Found,1910,45.5,-77,"(45.5, -77.0)"
23456,Schaap-Kooi,H4,2700,2.7,Found,1910,-32.08333,21.33333,"(-32.08333, 21.33333)"
5193,Cadell,L6,3290,3.29,Found,1910,-34.06667,139.75,"(-34.06667, 139.75)"
4949,Baroti,L6,4500,4.5,Fell,1910,31.61667,76.8,"(31.61667, 76.8)"
22596,Rica Aventura,"Iron, IVA",5395,5.395,Found,1910,-21.98333,-69.61667,"(-21.98333, -69.61667)"
11870,Hedjaz,L3.7-6,6100,6.1,Fell,1910,27.33333,35.66667,"(27.33333, 35.66667)"
16701,Mirzapur,L5,8510,8.51,Fell,1910,25.68333,83.25,"(25.68333, 83.25)"
12298,Khohar,L3.6,9700,9.7,Fell,1910,25.1,81.53333,"(25.1, 81.53333)"
23896,Tendo,"Iron, IIIAB",10100,10.1,Found,1910,38.35,140.37333,"(38.35, 140.37333)"
18869,Pooposo,"Iron, IAB-MG",12000,12,Found,1910,-18.33333,-66.83333,"(-18.33333, -66.83333)"
7717,Dorofeevka,"Iron, IIF",12600,12.6,Found,1910,53.33333,70.06667,"(53.33333, 70.06667)"
11988,Huntsman,H4,14500,14.5,Found,1910,41.18333,-103,"(41.18333, -103.0)"
24174,Vigarano,CV3,15000,15,Fell,1910,44.85,11.4,"(44.85, 11.4)"
23093,St. Michel,L6,17000,17,Fell,1910,61.65,27.2,"(61.65, 27.2)"
24026,Tonk,CI1,7.7,0.0077,Fell,1911,24.65,76.86667,"(24.65, 76.86667)"
10043,Erevan,Howardite,107.2,0.1072,Fell,1911,40.3,44.5,"(40.3, 44.5)"
12308,Kilbourn,H5,772,0.772,Fell,1911,43.58333,-89.6,"(43.58333, -89.6)"
17975,Oberlin,LL5,2500,2.5,Found,1911,39.8,-100.51667,"(39.8, -100.51667)"
12283,Kermichel,L6,3000,3,Found,1911,47.65,-2.76667,"(47.65, -2.76667)"
24170,Vicenice,"Iron, IID",4370,4.37,Found,1911,49.21667,15.8,"(49.21667, 15.8)"
5495,Cullison,H4,10000,10,Found,1911,37.61667,-98.91667,"(37.61667, -98.91667)"
16898,Nakhla,Martian (nakhlite),10000,10,Fell,1911,31.31667,30.35,"(31.31667, 30.35)"
6649,Demina,L6,16400,16.4,Fell,1911,51.46667,84.76667,"(51.46667, 84.76667)"
5478,Cruz del Aire,"Iron, ungrouped",23000,23,Found,1911,26.5,-100,"(26.5, -100.0)"
16852,Mundrabilla,"Iron, IAB-ung",24000000,24000,Found,1911,-30.78333,127.55,"(-30.78333, 127.55)"
23878,Tarbagatai,L5,370,0.37,Found,1912,51.36667,107.38333,"(51.36667, 107.38333)"
12756,Leeuwfontein,L6,460,0.46,Fell,1912,-25.66667,28.36667,"(-25.66667, 28.36667)"
378,Adelie Land,L5,1000,1,Found,1912,-67.18333,142.38333,"(-67.18333, 142.38333)"
23583,Shupiyan,H6,5000,5,Fell,1912,33.71667,74.83333,"(33.71667, 74.83333)"
5049,Binda,Eucrite-cm,5400,5.4,Found,1912,-34.31667,149.38333,"(-34.31667, 149.38333)"
5058,Bishop Canyon,"Iron, IVA",8600,8.6,Found,1912,38,-108.5,"(38.0, -108.5)"
10114,Floydada,"Iron, IIIAB",12500,12.5,Found,1912,33.98333,-101.28333,"(33.98333, -101.28333)"
16983,N'Kandhla,"Iron, IID",17200,17.2,Fell,1912,-28.56667,30.7,"(-28.56667, 30.7)"
11201,Gretna,L5,82000,82,Found,1912,39.93333,-99.21667,"(39.93333, -99.21667)"
16716,Molong,"Pallasite, PMG",104000,104,Found,1912,-33.28333,148.88333,"(-33.28333, 148.88333)"
5404,Colomera,"Iron, IIE",134000,134,Found,1912,37.43333,-3.65,"(37.43333, -3.65)"
11894,Holbrook,L/LL6,220000,220,Fell,1912,34.9,-110.18333,"(34.9, -110.18333)"
4937,Banswal,L5,14,0.014,Fell,1913,30.4,78.2,"(30.4, 78.2)"
12240,Kamiomi,H5,448,0.448,Fell,1913,36.04167,139.95667,"(36.04167, 139.95667)"
16736,Moore County,Eucrite-cm,1880,1.88,Fell,1913,35.41667,-79.38333,"(35.41667, -79.38333)"
24153,Varpaisjärvi,L6,2000,2,Found,1913,63.3,27.73333,"(63.3, 27.73333)"
5431,Cookeville,"Iron, IAB-ung",2300,2.3,Found,1913,36.16667,-85.51667,"(36.16667, -85.51667)"
23103,Sakauchi,Iron,4180,4.18,Fell,1913,35.66667,136.3,"(35.66667, 136.3)"
5494,Culbertson,H4,5900,5.9,Found,1913,40.23333,-100.83333,"(40.23333, -100.83333)"
5170,Burkett,"Iron, IAB-MG",8400,8.4,Found,1913,32.03333,-99.25,"(32.03333, -99.25)"
18061,Owens Valley,"Iron, IIIAB",192800,192.8,Found,1913,37.46667,-118,"(37.46667, -118.0)"
5353,Chinga,"Iron, ungrouped",209400,209.4,Found,1913,51.05833,94.4,"(51.05833, 94.4)"
16773,Mount Edith,"Iron, IIIAB",326000,326,Found,1913,-22.5,116.16667,"(-22.5, 116.16667)"
5283,Cartoonkana,L6,294,0.294,Found,1914,-29.75,141.03333,"(-29.75, 141.03333)"
17970,Nyirábrany,LL5,1100,1.1,Fell,1914,47.55,22.025,"(47.55, 22.025)"
12325,Kisvarsány,L6,1550,1.55,Fell,1914,48.16667,22.30833,"(48.16667, 22.30833)"
30347,Yandama,L6,5800,5.8,Found,1914,-29.75,141.03333,"(-29.75, 141.03333)"
14760,Lushton,L6,6700,6.7,Found,1914,40.74972,-97.74972,"(40.74972, -97.74972)"
22791,Ryechki,L5,13000,13,Fell,1914,51.13333,34.5,"(51.13333, 34.5)"
12345,Kopjes Vlei,"Iron, IIAB",13600,13.6,Found,1914,-29.3,21.15,"(-29.3, 21.15)"
23101,Saint-Sauveur,EH5,14000,14,Fell,1914,43.73333,1.38333,"(43.73333, 1.38333)"
2318,Appley Bridge,LL6,15000,15,Fell,1914,53.58333,-2.71667,"(53.58333, -2.71667)"
18077,Palinshih,Iron,18000,18,Fell,1914,43.48333,118.61667,"(43.48333, 118.61667)"
2341,Artracoona,L6,20810,20.81,Found,1914,-29.06667,139.91667,"(-29.06667, 139.91667)"
5466,Cratheús (1931),"Iron, IVA",27500,27.5,Found,1914,-5.25,-40.5,"(-5.25, -40.5)"
5281,Carraweena,L3.9,31600,31.6,Found,1914,-29.23333,139.93333,"(-29.23333, 139.93333)"
12384,Kuttippuram,L6,45000,45,Fell,1914,10.83333,76.03333,"(10.83333, 76.03333)"
24276,Willow Creek,"Iron, IIIE",51000,51,Found,1914,43.46667,-106.76667,"(43.46667, -106.76667)"
12259,Karee Kloof,"Iron, IAB-sLL",92100,92.1,Found,1914,-31.6,25.8,"(-31.6, 25.8)"
30375,Ysleta,"Iron, ungrouped",140700,140.7,Found,1914,31.65,-106.18333,"(31.65, -106.18333)"
16741,Morasko,"Iron, IAB-MG",290000,290,Found,1914,52.46667,16.9,"(52.46667, 16.9)"
23764,Suwa,Iron,203,0.203,Found,1915,36.03333,138.08333,"(36.03333, 138.08333)"
5348,Chico Mountains,"Iron, IIAB",212,0.212,Found,1915,29,-103.25,"(29.0, -103.25)"
24189,Visuni,H6,594,0.594,Fell,1915,25.45,70,"(25.45, 70.0)"
23537,Shiraiwa,H4,950,0.95,Found,1915,39.5,140.2,"(39.5, 140.2)"
16913,Naretha,L4,5500,5.5,Found,1915,-31,124.83333,"(-31.0, 124.83333)"
12023,Ilinskaya Stanitza,"Iron, IIIAB",5621,5.621,Found,1915,51.23333,57.38333,"(51.23333, 57.38333)"
23676,South Byron,"Iron, ungrouped",6000,6,Found,1915,43.03333,-78.03333,"(43.03333, -78.03333)"
24137,Uvalde,H5,8200,8.2,Found,1915,29.2,-99.76667,"(29.2, -99.76667)"
24198,Waingaromia,"Iron, IIIAB",9200,9.2,Found,1915,-38.25,178.08333,"(-38.25, 178.08333)"
15470,Meester-Cornelis,H5,24750,24.75,Fell,1915,-6.23333,106.88333,"(-6.23333, 106.88333)"
455,Albin (pallasite),"Pallasite, PMG",37600,37.6,Found,1915,41.5,-104.1,"(41.5, -104.1)"
22767,Rosebud,H5,54900,54.9,Found,1915,30.81667,-97.05,"(30.81667, -97.05)"
10920,Gladstone (iron),"Iron, IAB-MG",736600,736.6,Found,1915,-23.9,151.3,"(-23.9, 151.3)"
18090,Pampa de Agua Blanca,L6,10,0.01,Found,1916,-24.16667,-69.83333,"(-24.16667, -69.83333)"
22385,Rampurhat,LL,100,0.1,Fell,1916,24.16667,87.76667,"(24.16667, 87.76667)"
10093,Fillmore,Iron,113,0.113,Found,1916,49.883333,-103.6,"(49.883333, -103.6)"
22589,Renqiu,L6,355,0.355,Fell,1916,38.66667,116.13333,"(38.66667, 116.13333)"
24023,Tomita,L,600,0.6,Fell,1916,34.5,133.75,"(34.5, 133.75)"
4977,Baxter,L6,611,0.611,Fell,1916,36.75,-93.5,"(36.75, -93.5)"
7777,Ekh Khera,H6,840,0.84,Fell,1916,28.26667,78.78333,"(28.26667, 78.78333)"
18001,Okechobee,L4,1000,1,Found,1916,26.68333,-80.8,"(26.68333, -80.8)"
23606,Sinai,L6,1455,1.455,Fell,1916,30.9,32.48333,"(30.9, 32.48333)"
23741,Sultanpur,L/LL6,1710.5,1.7105,Fell,1916,25.93333,84.28333,"(25.93333, 84.28333)"
18802,Petropavlovka,H4,1773,1.773,Found,1916,48.2,43.73333,"(48.2, 43.73333)"
5200,Calivo,Stone-uncl,2400,2.4,Fell,1916,11.75,122.33333,"(11.75, 122.33333)"
14712,Lost Creek,H3.8,4018,4.018,Found,1916,39.12417,-98.16778,"(39.12417, -98.16778)"
2306,Annaheim,"Iron, IAB-sLL",13500,13.5,Found,1916,52.33333,-104.86667,"(52.33333, -104.86667)"
2300,Angelica,"Iron, IIIAB",14800,14.8,Found,1916,44.25,-88.25,"(44.25, -88.25)"
16780,Mount Magnet,"Iron, IAB-sHH",16600,16.6,Found,1916,-28.16667,118.5,"(-28.16667, 118.5)"
5189,Cachari,Eucrite-mmict,23500,23.5,Found,1916,-36.4,-59.5,"(-36.4, -59.5)"
24050,Treysa,"Iron, IIIAB-an",63000,63,Fell,1916,50.91667,9.18333,"(50.91667, 9.18333)"
5098,Boguslavka,"Iron, IIAB",256000,256,Fell,1916,44.55,131.63333,"(44.55, 131.63333)"
55584,Silistra,Achondrite-ung,0.15,0.00015,Fell,1917,44.11667,27.26667,"(44.11667, 27.26667)"
23473,Sediköy,L6,240,0.24,Fell,1917,38.3,27.13333,"(38.3, 27.13333)"
22387,Ranchapur,H4,290.4,0.2904,Fell,1917,23.98333,87.08333,"(23.98333, 87.08333)"
10860,Garhi Yasin,"Iron, IIE",380,0.38,Fell,1917,27.88333,68.53333,"(27.88333, 68.53333)"
12028,Independence,L6,880,0.88,Fell,1917,39.08333,-94.4,"(39.08333, -94.4)"
24054,Troup,L6,1020,1.02,Fell,1917,32.16667,-95.1,"(32.16667, -95.1)"
5465,Cranganore,L6,1460,1.46,Fell,1917,10.2,76.26667,"(10.2, 76.26667)"
24067,Tulia (b),L6,4800,4.8,Found,1917,34.53333,-101.7,"(34.53333, -101.7)"
16951,New Almelo,L5,8000,8,Found,1917,39.66667,-100,"(39.66667, -100.0)"
23729,Strathmore,L6,13400,13.4,Fell,1917,56.58333,-3.25,"(56.58333, -3.25)"
5088,Bluff (b),L4,16000,16,Found,1917,29.86306,-96.92667,"(29.86306, -96.92667)"
24219,Waterville,"Iron, IAB-ung",37125,37.125,Found,1917,47.767778,-119.876389,"(47.767778, -119.876389)"
16903,Nan Yang Pao,L6,52900,52.9,Fell,1917,35.66667,103.5,"(35.66667, 103.5)"
24066,Tulia (a),H3-4,86000,86,Found,1917,34.61667,-101.95,"(34.61667, -101.95)"
18819,Pierceville (iron),"Iron, IIIAB",100000,100,Found,1917,37.86667,-100.66667,"(37.86667, -100.66667)"
5395,Colby (Wisconsin),L6,104000,104,Fell,1917,44.9,-90.28333,"(44.9, -90.28333)"
30373,Youanmi,"Iron, IIIAB",118400,118.4,Found,1917,-29.5,118.75,"(-29.5, 118.75)"
18784,Pei Xian,Iron,400000,400,Found,1917,34.7,117,"(34.7, 117.0)"
18841,Plainview (1917),H5,700000,700,Found,1917,34.11667,-101.78333,"(34.11667, -101.78333)"
24321,Witklip Farm,H5,22,0.022,Fell,1918,-26,30,"(-26.0, 30.0)"
23972,Thompson Brook,"Iron, IAB-ung",76.6,0.0766,Found,1918,-33.61667,115.91667,"(-33.61667, 115.91667)"
7709,Donnybrook,Mesosiderite?,414,0.414,Found,1918,-33.61667,115.91667,"(-33.61667, 115.91667)"
10065,Eustis,H4,502,0.502,Found,1918,28.83333,-81.68333,"(28.83333, -81.68333)"
23801,Tané,L5,905,0.905,Fell,1918,35.43333,136.23333,"(35.43333, 136.23333)"
16994,Norfork,"Iron, IIIAB",1050,1.05,Fell,1918,36.21667,-92.26667,"(36.21667, -92.26667)"
14677,Logan,H5,1315,1.315,Found,1918,36.58333,-100.2,"(36.58333, -100.2)"
17992,Ogallala,"Iron, IAB-sLL",3300,3.3,Found,1918,41.16667,-101.66667,"(41.16667, -101.66667)"
24332,Wood's Mountain,"Iron, IVA",3867,3.867,Found,1918,35.68333,-82.18333,"(35.68333, -82.18333)"
4940,Barbacena,"Iron, ungrouped",9026,9.026,Found,1918,-21.21667,-43.93333,"(-21.21667, -43.93333)"
22599,Richardton,H5,90000,90,Fell,1918,46.88333,-102.31667,"(46.88333, -102.31667)"
30361,Yenberrie,"Iron, IAB-MG",132000,132,Found,1918,-14.25,132.01667,"(-14.25, 132.01667)"
10926,Glasatovo,H4,152000,152,Fell,1918,57.35,37.61667,"(57.35, 37.61667)"
12311,Kimble County,H6,153800,153.8,Found,1918,30.41667,-99.4,"(30.41667, -99.4)"
23176,Saratov,L4,200000,200,Fell,1918,52.55,46.55,"(52.55, 46.55)"
23091,St. Mary's County,LL3.3,24.3,0.0243,Fell,1919,38.16667,-76.38333,"(38.16667, -76.38333)"
5187,Cacak,OC,212,0.212,Fell,1919,43.83889,20.33333,"(43.83889, 20.33333)"
10180,Freda,"Iron, IAB-sLH",268,0.268,Found,1919,46.38333,-101.23333,"(46.38333, -101.23333)"
30383,Zaffra,"Iron, IAB-MG",3000,3,Found,1919,35,-94.75,"(35.0, -94.75)"
379,Adhi Kot,EH4,4239,4.239,Fell,1919,32.1,71.8,"(32.1, 71.8)"
22394,Raoyang,L6,4910,4.91,Fell,1919,38.2,115.7,"(38.2, 115.7)"
22585,Rembang,"Iron, IVA",10000,10,Fell,1919,-6.73333,111.36667,"(-6.73333, 111.36667)"
23665,Somervell County,"Pallasite, PMG",11800,11.8,Found,1919,32.18333,-97.8,"(32.18333, -97.8)"
5496,Cumberland Falls,Aubrite,17000,17,Fell,1919,36.83333,-84.35,"(36.83333, -84.35)"
2310,Anthony,H5,20000,20,Found,1919,37.08333,-98.05,"(37.08333, -98.05)"
12437,Lake Brown,L6,23400,23.4,Found,1919,-31,118.5,"(-31.0, 118.5)"
18041,Otchinjau,"Iron, IVA",30000,30,Found,1919,-16.5,14,"(-16.5, 14.0)"
23592,Signal Mountain,"Iron, IVA",63500,63.5,Found,1919,32.5,-115.5,"(32.5, -115.5)"
5169,Bur-Gheluai,H5,120000,120,Fell,1919,5,48,"(5.0, 48.0)"
24087,Tuzla,L6,236,0.236,Found,1920,44.01667,28.63333,"(44.01667, 28.63333)"
23603,Simmern,H5,1222,1.222,Fell,1920,49.98333,7.53333,"(49.98333, 7.53333)"
4883,Atarra,L4,1280,1.28,Fell,1920,25.25417,80.625,"(25.25417, 80.625)"
16749,Morrill,"Iron, IAB-an",1387,1.387,Found,1920,42.18333,-103.93333,"(42.18333, -103.93333)"
417,Aguila Blanca,L,1440,1.44,Fell,1920,-30.86667,-64.55,"(-30.86667, -64.55)"
23124,San Francisco Mountains,"Iron, IVA",1700,1.7,Found,1920,35,-112,"(35.0, -112.0)"
24319,Witchelina,H4,3637,3.637,Found,1920,-30,138,"(-30.0, 138.0)"
5354,Chinguetti,Mesosiderite-B1,4050,4.05,Found,1920,20.25,-12.68333,"(20.25, -12.68333)"
12381,Kushiike,OC,4460,4.46,Fell,1920,37.05,138.38333,"(37.05, 138.38333)"
15452,Mayodan,"Iron, IIAB",15400,15.4,Found,1920,36.38333,-79.86667,"(36.38333, -79.86667)"
24341,Wu-chu-mu-ch'in,"Iron, IAB-ung",68860,68.86,Found,1920,45.5,118,"(45.5, 118.0)"
15492,Merua,H5,71400,71.4,Fell,1920,25.48333,81.98333,"(25.48333, 81.98333)"
24124,Unter-Mässing,"Iron, IIC",80000,80,Found,1920,49.09028,11.33333,"(49.09028, 11.33333)"
11890,Hoba,"Iron, IVB",60000000,60000,Found,1920,-19.58333,17.91667,"(-19.58333, 17.91667)"
12239,Kamioka,H4,30,0.03,Found,1921,39.51667,140.36667,"(39.51667, 140.36667)"
11829,Haripura,CM2,315,0.315,Fell,1921,28.38333,75.78333,"(28.38333, 75.78333)"
5396,Cold Bay,"Pallasite, PES",320,0.32,Found,1921,55.18333,-162.55,"(55.18333, -162.55)"
5433,Coolamon,L6,393,0.393,Found,1921,-34.81667,147.13333,"(-34.81667, 147.13333)"
5035,Beyrout,LL3.8,1100,1.1,Fell,1921,33.88333,35.5,"(33.88333, 35.5)"
23525,Sharps,H3.4,1265,1.265,Fell,1921,37.83333,-76.7,"(37.83333, -76.7)"
7815,El Qoseir,"Iron, ungrouped",2405,2.405,Found,1921,26.28333,34.25,"(26.28333, 34.25)"
23115,Samelia,"Iron, IIIAB",2462,2.462,Fell,1921,25.66667,74.86667,"(25.66667, 74.86667)"
23534,Shikarpur,L6,3679.7,3.6797,Fell,1921,25.85,87.5775,"(25.85, 87.5775)"
18837,Pitts,"Iron, IAB-ung",3760,3.76,Fell,1921,31.95,-83.51667,"(31.95, -83.51667)"
10178,Franklin,H5,9062,9.062,Found,1921,36.71667,-86.56667,"(36.71667, -86.56667)"
22766,Rose City,H5,10600,10.6,Fell,1921,44.51667,-83.95,"(44.51667, -83.95)"
24141,Vaalbult,"Iron, IAB-MG",11800,11.8,Found,1921,-29.75,22.5,"(-29.75, 22.5)"
24060,Tuan Tuc,L6,13100,13.1,Fell,1921,9.66667,105.66667,"(9.66667, 105.66667)"
16688,Milly Milly,"Iron, IIIAB",26500,26.5,Found,1921,-26.11667,116.66667,"(-26.11667, 116.66667)"
24105,Uegit,"Iron, IIIAB",252000,252,Found,1921,3.81667,43.33333,"(3.81667, 43.33333)"
23166,Santa Luzia,"Iron, IIAB",1918000,1918,Found,1921,-16.26667,-47.95,"(-16.26667, -47.95)"
16926,Navajo,"Iron, IIAB",2184000,2184,Found,1921,35.33333,-109.5,"(35.33333, -109.5)"
18118,Patti,Iron,12,0.012,Fell,1922,38.13333,14.96667,"(38.13333, 14.96667)"
4926,Baldwyn,L6,345,0.345,Fell,1922,34.5,-88.66667,"(34.5, -88.66667)"
10027,Elsinora,H5,1797,1.797,Found,1922,-29.45,143.6,"(-29.45, 143.6)"
16890,Nagai,L6,1810,1.81,Fell,1922,38.12167,140.06167,"(38.12167, 140.06167)"
16743,Morden,"Iron, IAB?",2426,2.426,Found,1922,-30.5,142.33333,"(-30.5, 142.33333)"
15494,Mesa Verde Park,"Iron, IAB-ung",3500,3.5,Found,1922,37.16667,-108.5,"(37.16667, -108.5)"
11869,Hedeskoga,H5,3500,3.5,Fell,1922,55.46667,13.78333,"(55.46667, 13.78333)"
10111,Florence,H3,3640,3.64,Fell,1922,30.83333,-97.76667,"(30.83333, -97.76667)"
7747,Dungannon,"Iron, IAB-MG",13000,13,Found,1922,36.85,-82.45,"(36.85, -82.45)"
24012,Tjerebon,L5,16500,16.5,Fell,1922,-6.66667,106.58333,"(-6.66667, 106.58333)"
16952,New Baltimore,"Iron, ungrouped",20000,20,Found,1922,40,-78.85,"(40.0, -78.85)"
10927,Glasgow,"Iron, IIIAB",20400,20.4,Found,1922,37.01667,-85.91667,"(37.01667, -85.91667)"
23987,Tieraco Creek,"Iron, IIIAB",41700,41.7,Found,1922,-26.33333,118.33333,"(-26.33333, 118.33333)"
18817,Piedade do Bagre,"Iron, ungrouped",59000,59,Found,1922,-18.94167,-44.98333,"(-18.94167, -44.98333)"
17985,Odessa (iron),"Iron, IAB-MG",1600000,1600,Found,1922,31.71667,-102.4,"(31.71667, -102.4)"
5056,Birni N'konni,H4,560,0.56,Fell,1923,13.76667,5.3,"(13.76667, 5.3)"
2346,Ashdon,L6,1300,1.3,Fell,1923,52.05,0.3,"(52.05, 0.3)"
2277,Allen,H4,1407,1.407,Found,1923,33.1,-96.7,"(33.1, -96.7)"
11895,Holetta,Stone-uncl,1415,1.415,Fell,1923,9.06667,38.41667,"(9.06667, 38.41667)"
23502,Serra de Magé,Eucrite-cm,1800,1.8,Fell,1923,-8.38333,-36.76667,"(-8.38333, -36.76667)"
10945,Goodland,L4,3628,3.628,Found,1923,39.35,-101.66667,"(39.35, -101.66667)"
16962,Newport,"Pallasite, PMG",5600,5.6,Found,1923,35.6,-91.26667,"(35.6, -91.26667)"
23591,Sierra Sandon,"Iron, IIIAB",6330,6.33,Found,1923,-25.16667,-69.28333,"(-25.16667, -69.28333)"
23499,Seneca Township,"Iron, IVA",11500,11.5,Found,1923,41.78333,-84.18333,"(41.78333, -84.18333)"
5506,Dalgaranga,Mesosiderite-A,12200,12.2,Found,1923,-27.71667,117.25,"(-27.71667, 117.25)"
5398,Coldwater (iron),Iron,18400,18.4,Found,1923,37.26667,-99.33333,"(37.26667, -99.33333)"
16899,Nakhon Pathom,L6,23200,23.2,Fell,1923,13.73333,100.08333,"(13.73333, 100.08333)"
24333,Woodward County,H4,45500,45.5,Found,1923,36.5,-99.5,"(36.5, -99.5)"
23189,Savannah,"Iron, IIIAB",60000,60,Found,1923,35.16667,-88.18333,"(35.16667, -88.18333)"
16727,Montferré,H5,149000,149,Fell,1923,43.39056,1.9625,"(43.39056, 1.9625)"
5266,Carbo,"Iron, IID",454000,454,Found,1923,29.66667,-111.5,"(29.66667, -111.5)"
10086,Fenghsien-Ku,H5,82,0.082,Fell,1924,34.6,116.75,"(34.6, 116.75)"
24123,Unkoku,OC,1000,1,Fell,1924,34.8,127,"(34.8, 127.0)"
6665,Dermbach,"Iron, ungrouped",1500,1.5,Found,1924,50.71667,10.11667,"(50.71667, 10.11667)"
12395,La Colina,H5,2000,2,Fell,1924,-37.33333,-61.53333,"(-37.33333, -61.53333)"
23736,Success,L6,3500,3.5,Fell,1924,36.48333,-90.66667,"(36.48333, -90.66667)"
16874,Muraid,L6,4703,4.703,Fell,1924,24.5,90.21667,"(24.5, 90.21667)"
23165,Santa Isabel,L6,5500,5.5,Fell,1924,-33.9,-61.7,"(-33.9, -61.7)"
10123,Forksville,L6,6067,6.067,Fell,1924,36.78333,-78.08333,"(36.78333, -78.08333)"
4994,Beeler,LL6,11620,11.62,Found,1924,38.53333,-100.21667,"(38.53333, -100.21667)"
369,Achilles,H5,16000,16,Found,1924,39.77667,-100.81333,"(39.77667, -100.81333)"
5399,Coldwater (stone),H5,16000,16,Found,1924,37.26667,-99.33333,"(37.26667, -99.33333)"
5028,Béréba,Eucrite-mmict,18000,18,Fell,1924,11.65,-3.65,"(11.65, -3.65)"
10172,Four Corners,"Iron, IAB-ung",25000,25,Found,1924,37,-109.05,"(37.0, -109.05)"
12444,Lake Labyrinth,LL6,25850,25.85,Found,1924,-30.53333,134.75,"(-30.53333, 134.75)"
12198,Johnstown,Diogenite,40300,40.3,Fell,1924,40.35,-104.9,"(40.35, -104.9)"
24230,Weekeroo Station,"Iron, IIE-an",94200,94.2,Found,1924,-32.26667,139.86667,"(-32.26667, 139.86667)"
18013,Olivenza,LL5,150000,150,Fell,1924,38.71667,-7.06667,"(38.71667, -7.06667)"
11922,Huckitta,"Pallasite, PMG-an",2300000,2300,Found,1924,-22.36667,135.76667,"(-22.36667, 135.76667)"
23777,Tacoma,"Iron, IAB complex",16.7,0.0167,Found,1925,47.25,-122.41667,"(47.25, -122.41667)"
16876,Murchison Downs,"Iron, ungrouped",33,0.033,Found,1925,-26.66667,119,"(-26.66667, 119.0)"
22587,Renca,L5,300,0.3,Fell,1925,-32.75,-65.28333,"(-32.75, -65.28333)"
17960,Numakai,H4,363,0.363,Fell,1925,43.33333,141.86667,"(43.33333, 141.86667)"
12754,Lebedinnyi,Iron,410,0.41,Found,1925,55.95,125.4,"(55.95, 125.4)"
10019,Ellemeet,Diogenite,1470,1.47,Fell,1925,51.75,4,"(51.75, 4.0)"
5334,Chaves,Howardite,2945,2.945,Fell,1925,41.93333,-7.46667,"(41.93333, -7.46667)"
12465,Lanzenkirchen,L4,7000,7,Fell,1925,47.75,16.23333,"(47.75, 16.23333)"
22357,Queen's Mercy,H6,7000,7,Fell,1925,-30.11667,28.7,"(-30.11667, 28.7)"
16754,Morven,H4/5,7100,7.1,Found,1925,-44.81667,171.13333,"(-44.81667, 171.13333)"
18021,Opava,Iron,14300,14.3,Found,1925,49.96667,17.9,"(49.96667, 17.9)"
424,Aïr,L6,24000,24,Fell,1925,19.08333,8.38333,"(19.08333, 8.38333)"
18113,Patos de Minas (hexahedrite),"Iron, IIAB",32000,32,Found,1925,-18.58333,-46.53333,"(-18.58333, -46.53333)"
10933,Glenormiston,"Iron, ungrouped",40800,40.8,Found,1925,-22.9,138.71667,"(-22.9, 138.71667)"
23156,Sandia Mountains,"Iron, IIAB",45000,45,Found,1925,35.25,-106.5,"(35.25, -106.5)"
18114,Patos de Minas (octahedrite),"Iron, IAB complex",200000,200,Found,1925,-18.58333,-46.53333,"(-18.58333, -46.53333)"
24108,Ulmiz,L,76.5,0.0765,Fell,1926,46.93333,7.21667,"(46.93333, 7.21667)"
18079,Palmyra,L3,135,0.135,Fell,1926,39.8,-91.5,"(39.8, -91.5)"
12343,Komagome,Iron,238,0.238,Fell,1926,35.73333,139.75,"(35.73333, 139.75)"
24184,Vincent,L5,430,0.43,Found,1926,-35.01667,139.91667,"(-35.01667, 139.91667)"
12067,Jajh deh Kot Lalu,EL6,973,0.973,Fell,1926,26.75,68.41667,"(26.75, 68.41667)"
24129,Urasaki,Stone-uncl,1500,1.5,Fell,1926,34.48333,133.28333,"(34.48333, 133.28333)"
18182,Peck's Spring,L5,1600,1.6,Found,1926,32,-102,"(32.0, -102.0)"
24226,Weatherford,CBa,2000,2,Found,1926,35.5,-98.7,"(35.5, -98.7)"
17997,Ojuelos Altos,L6,5850,5.85,Fell,1926,38.18333,-5.4,"(38.18333, -5.4)"
17999,Okahandja,"Iron, IIAB",6580,6.58,Found,1926,-21.98333,16.93333,"(-21.98333, 16.93333)"
14721,Lua,L5,9241,9.241,Fell,1926,24.95,75.15,"(24.95, 75.15)"
6662,Deport,"Iron, IAB-sLL",15000,15,Found,1926,33.51667,-95.3,"(33.51667, -95.3)"
17972,Oakley (iron),"Iron, IIIF",111000,111,Found,1926,42.33333,-113.7,"(42.33333, -113.7)"
10871,Genichesk,L5/6,531,0.531,Found,1927,46.7,32.6,"(46.7, 32.6)"
24057,Trysil,L/LL6,640,0.64,Fell,1927,61.3,12.3,"(61.3, 12.3)"
23670,Sopot,OC,958,0.958,Fell,1927,44.41667,23.5,"(44.41667, 23.5)"
15401,Mamra Springs,L6,1000,1,Fell,1927,45.21667,62.08333,"(45.21667, 62.08333)"
4930,Ballinger,"Iron, IAB-MG",1250,1.25,Found,1927,31.76667,-99.98333,"(31.76667, -99.98333)"
17988,Oesede,H5,1400,1.4,Fell,1927,52.28333,8.05,"(52.28333, 8.05)"
24110,Ulysses,H4,3900,3.9,Found,1927,37.6,-101.25,"(37.6, -101.25)"
24217,Washington County,"Iron, ungrouped",5750,5.75,Found,1927,39.7,-103.16667,"(39.7, -103.16667)"
18827,Pinnaroo,Mesosiderite-A4,39400,39.4,Found,1927,-35.38333,140.91667,"(-35.38333, 140.91667)"
7651,Dix,L6,44000,44,Found,1927,41.23333,-103.48333,"(41.23333, -103.48333)"
11887,Hinojal,L6,50000,50,Found,1927,-32.36667,-60.15,"(-32.36667, -60.15)"
23998,Tilden,L6,74800,74.8,Fell,1927,38.2,-89.68333,"(38.2, -89.68333)"
23659,Social Circle,"Iron, IVA",99300,99.3,Found,1927,33.7,-83.7,"(33.7, -83.7)"
24101,Udei Station,"Iron, IAB-ung",103000,103,Fell,1927,7.95,8.08333,"(7.95, 8.08333)"
11984,Hugoton,H5,350000,350,Found,1927,37.2,-101.35,"(37.2, -101.35)"
24206,Wallapai,"Iron, IID",430000,430,Found,1927,35.8,-113.7,"(35.8, -113.7)"
30372,Yoshiki,Stone-uncl,0.1,0.0001,Fell,1928,34.16667,131.45,"(34.16667, 131.45)"
18042,Oterøy,L6,246,0.246,Fell,1928,58.88333,9.4,"(58.88333, 9.4)"
16912,Narellan,L6,367.5,0.3675,Fell,1928,-34.05,150.68889,"(-34.05, 150.68889)"
16751,Morro do Rocio,H5,369,0.369,Found,1928,-27,-51,"(-27.0, -51.0)"
12744,Lawrence,L6,515,0.515,Found,1928,38.96667,-95.16667,"(38.96667, -95.16667)"
11888,Hinojo,H,1155,1.155,Found,1928,-36.86667,-60.16667,"(-36.86667, -60.16667)"
5454,Cotesfield,L6,1160,1.16,Found,1928,41.36667,-98.63333,"(41.36667, -98.63333)"
30368,York (stone),L6,1440,1.44,Found,1928,40.86667,-97.6,"(40.86667, -97.6)"
12053,Isthilart,H5,3050,3.05,Fell,1928,-31.18333,-57.95,"(-31.18333, -57.95)"
24136,Utzenstorf,H5,3422,3.422,Fell,1928,47.11667,7.55,"(47.11667, 7.55)"
375,Adams County,H5,5700,5.7,Found,1928,39.96667,-103.76667,"(39.96667, -103.76667)"
16908,Naoki,H6,17000,17,Fell,1928,19.25,77,"(19.25, 77.0)"
18828,Piñon,"Iron, ungrouped",17850,17.85,Found,1928,32.66667,-105.1,"(32.66667, -105.1)"
23787,Taicang,Stone-uncl,20000,20,Found,1928,31.5,121.08333,"(31.5, 121.08333)"
24285,Winona,Winonaite,24000,24,Found,1928,35.2,-111.4,"(35.2, -111.4)"
18029,Orlovka,H5,40500,40.5,Found,1928,56,76.75,"(56.0, 76.75)"
24152,Valley Wells,L6,129.9,0.1299,Found,1929,35.46667,-115.66667,"(35.46667, -115.66667)"
12252,Kappakoola,H6,392.5,0.3925,Found,1929,-33.25,135.53333,"(-33.25, 135.53333)"
15473,Mellenbye,LL6,1181.6,1.1816,Found,1929,-28.85,116.28333,"(-28.85, 116.28333)"
12365,Krzadka,Iron,2500,2.5,Found,1929,50.375,21.73333,"(50.375, 21.73333)"
22593,Rewari,L6,3332,3.332,Fell,1929,28.2,76.66667,"(28.2, 76.66667)"
4925,Bald Mountain,L4,3700,3.7,Fell,1929,35.96667,-82.48333,"(35.96667, -82.48333)"
18069,Padvarninkai,Eucrite-mmict,3858,3.858,Fell,1929,55.66667,25,"(55.66667, 25.0)"
23887,Tauk,L6,6000,6,Fell,1929,35.13333,44.45,"(35.13333, 44.45)"
12297,Khmelevka,L5,6109,6.109,Fell,1929,56.75,75.33333,"(56.75, 75.33333)"
5245,Campbellsville,"Iron, IIIAB",15400,15.4,Found,1929,37.36667,-85.36667,"(37.36667, -85.36667)"
4984,Beardsley,H5,16000,16,Fell,1929,39.8,-101.2,"(39.8, -101.2)"
18015,Olmedilla de Alarcón,H5,40000,40,Fell,1929,39.56667,-2.1,"(39.56667, -2.1)"
5350,Chihuahua City,"Iron, IC",54000,54,Found,1929,28.66667,-106.11667,"(28.66667, -106.11667)"
18066,Ozona,H6,127500,127.5,Found,1929,30.73333,-101.3,"(30.73333, -101.3)"
10957,Grant,"Iron, IIIAB",525000,525,Found,1929,35.16667,-107.88333,"(35.16667, -107.88333)"
15395,Malampaka,H,470,0.47,Fell,1930,-3.13333,33.51667,"(-3.13333, 33.51667)"
11467,Gyokukei,OC,1320,1.32,Fell,1930,35,127.5,"(35.0, 127.5)"
5112,Boriskino,CM2,1342,1.342,Fell,1930,54.23333,52.48333,"(54.23333, 52.48333)"
398,Aguada,L6,1620,1.62,Fell,1930,-31.6,-65.23333,"(-31.6, -65.23333)"
18846,Plantersville,H6,2085,2.085,Fell,1930,30.7,-96.11667,"(30.7, -96.11667)"
5115,Borrego,L6,2126,2.126,Found,1930,33.26667,-116.38333,"(33.26667, -116.38333)"
14650,Lillaverke,H5,6862,6.862,Fell,1930,56.65,15.86667,"(56.65, 15.86667)"
16738,Moorleah,L6,8887.5,8.8875,Fell,1930,-40.975,145.6,"(-40.975, 145.6)"
18009,Oldenburg (1930),L6,16570,16.57,Fell,1930,52.95,8.16667,"(52.95, 8.16667)"
23893,Tell,H6,16600,16.6,Found,1930,34.38333,-100.4,"(34.38333, -100.4)"
16645,Miller (Arkansas),H5,16700,16.7,Fell,1930,35.4,-92.05,"(35.4, -92.05)"
12264,Karoonda,CK4,41730,41.73,Fell,1930,-35.08333,139.91667,"(-35.08333, 139.91667)"
16630,Miami,H5,57700,57.7,Found,1930,35.66667,-100.6,"(35.66667, -100.6)"
12457,Landes,"Iron, IAB-MG",69800,69.8,Found,1930,38.9,-79.18333,"(38.9, -79.18333)"
24139,Uwharrie,"Iron, IIIAB",72700,72.7,Found,1930,35.51667,-79.96667,"(35.51667, -79.96667)"
5014,Bencubbin,CBa,118000,118,Found,1930,-30.75,117.78333,"(-30.75, 117.78333)"
18101,Paragould,LL5,408000,408,Fell,1930,36.06667,-90.5,"(36.06667, -90.5)"
15456,Mbosi,"Iron, ungrouped",16000000,16000,Found,1930,-9.11667,33.06667,"(-9.11667, 33.06667)"
14714,Lost Lake,L6,11,0.011,Found,1931,37.65,-105.73333,"(37.65, -105.73333)"
12344,Konovo,LL5,90,0.09,Fell,1931,42.51667,26.16667,"(42.51667, 26.16667)"
18865,Pontlyfni,Winonaite,157,0.157,Fell,1931,53.03639,-4.31944,"(53.03639, -4.31944)"
23767,Suwahib (Buwah),H3.8-an,241,0.241,Found,1931,20.05556,51.41667,"(20.05556, 51.41667)"
12412,Lafayette (stone),Martian (nakhlite),800,0.8,Found,1931,40.41667,-86.88333,"(40.41667, -86.88333)"
5371,Clareton,L6,1050,1.05,Found,1931,43.7,-104.7,"(43.7, -104.7)"
18826,Pine River,"Iron, IAB-sLL",3600,3.6,Found,1931,44.21667,-89.1,"(44.21667, -89.1)"
30377,Yukan,LL6,4800,4.8,Fell,1931,28.71667,116.61667,"(28.71667, 116.61667)"
12458,Landor,Iron,9000,9,Found,1931,-25.66667,117,"(-25.66667, 117.0)"
23884,Tatahouine,Diogenite,12000,12,Fell,1931,32.95,10.41667,"(32.95, 10.41667)"
5158,Bruno,"Iron, IIAB",13000,13,Found,1931,52.26667,-105.35,"(52.26667, -105.35)"
471,Alikatnima,"Iron, ungrouped",20000,20,Found,1931,-23.33333,134.11667,"(-23.33333, 134.11667)"
12040,Ioka,L3.5,31500,31.5,Found,1931,40.25,-110.08333,"(40.25, -110.08333)"
18037,Osseo,"Iron, IAB complex",46300,46.3,Found,1931,47.63333,-80.08333,"(47.63333, -80.08333)"
4983,Bear Lodge,"Iron, IIIAB",48500,48.5,Found,1931,44.5,-104.2,"(44.5, -104.2)"
23692,Springwater,"Pallasite, PMG-an",67600,67.6,Found,1931,52,-108.3,"(52.0, -108.3)"
11872,Henbury,"Iron, IIIAB",2000000,2000,Found,1931,-24.56667,133.16667,"(-24.56667, 133.16667)"
16895,Naifa,Iron,8,0.008,Found,1932,19.93333,51.21667,"(19.93333, 51.21667)"
24322,Witsand Farm,LL4,66,0.066,Fell,1932,-28.66667,18.91667,"(-28.66667, 18.91667)"
24120,Umm Tina,L6,70.2,0.0702,Found,1932,19.02778,51.08333,"(19.02778, 51.08333)"
23766,Suwahib ('Ain Sala),H6,106.1,0.1061,Found,1932,19.95556,51.03333,"(19.95556, 51.03333)"
23765,Suwahib (Adraj),L4,118.1,0.1181,Found,1932,20.01667,50.93333,"(20.01667, 50.93333)"
12212,Junction,L5,241,0.241,Found,1932,30.5,-99.83333,"(30.5, -99.83333)"
10118,Föllinge,"Iron, IAB-sLH",400,0.4,Found,1932,63.73333,14.85,"(63.73333, 14.85)"
5499,Cushing,H4,567,0.567,Found,1932,35.96667,-96.76667,"(35.96667, -96.76667)"
5095,Boerne,H6,1100,1.1,Found,1932,29.8,-98.8,"(29.8, -98.8)"
7723,Douar Mghila,LL6,1161,1.161,Fell,1932,32.33333,-6.3,"(32.33333, -6.3)"
18883,Prambachkirchen,L6,2125,2.125,Fell,1932,48.3025,13.94083,"(48.3025, 13.94083)"
12299,Khor Temiki,Aubrite,3200,3.2,Fell,1932,16,36,"(16.0, 36.0)"
12289,Khanpur,LL5,3698,3.698,Fell,1932,25.55,83.11667,"(25.55, 83.11667)"
12385,Kuznetzovo,L6,4047,4.047,Fell,1932,55.2,75.33333,"(55.2, 75.33333)"
2329,Archie,H6,5070,5.07,Fell,1932,38.5,-94.3,"(38.5, -94.3)"
5457,Cowell,"Iron, IIIAB",5717,5.717,Found,1932,-33.3,136.01667,"(-33.3, 136.01667)"
12463,Lanton,"Iron, IIIAB",13780,13.78,Found,1932,36.53333,-91.8,"(36.53333, -91.8)"
16992,Nordheim,"Iron, ungrouped",15150,15.15,Found,1932,28.86667,-97.61667,"(28.86667, -97.61667)"
2286,Altonah,"Iron, IVA",21500,21.5,Found,1932,40.56667,-110.48333,"(40.56667, -110.48333)"
4939,Baquedano,"Iron, IIIAB",22000,22,Found,1932,-23.3,-69.88333,"(-23.3, -69.88333)"
11432,Gualeguaychú,H6,22000,22,Fell,1932,-33,-58.61667,"(-33.0, -58.61667)"
6636,Deelfontein,"Iron, IAB-MG",28000,28,Found,1932,-30.18333,23.26667,"(-30.18333, 23.26667)"
12386,Kyancutta,"Iron, IIIAB",32700,32.7,Found,1932,-33.28333,136,"(-33.28333, 136.0)"
24196,Wagon Mound,L6,87500,87.5,Found,1932,35.84083,-104.58583,"(35.84083, -104.58583)"
11434,Guanghua,"Iron, IVA",190000,190,Found,1932,32.4,111.7,"(32.4, 111.7)"
15393,Malaga,OC,150,0.15,Fell,1933,32.21667,-104,"(32.21667, -104.0)"
7758,Dyarrl Island,Mesosiderite-A1,188,0.188,Fell,1933,-3,151,"(-3.0, 151.0)"
5140,Brient,Eucrite-pmict,219,0.219,Fell,1933,52.13333,59.31667,"(52.13333, 59.31667)"
17936,Noyan-Bogdo,L6,250,0.25,Fell,1933,42.91667,102.46667,"(42.91667, 102.46667)"
4885,Athens,LL6,265,0.265,Fell,1933,34.75,-87,"(34.75, -87.0)"
4938,Banten,CM2,629,0.629,Fell,1933,-6.33333,106,"(-6.33333, 106.0)"
18879,Po-wang Chen,LL,665,0.665,Fell,1933,31.41667,118.5,"(31.41667, 118.5)"
15400,Malvern,Eucrite-pmict,807,0.807,Fell,1933,-29.45,26.76667,"(-29.45, 26.76667)"
11892,Hobbs (b),H5,1600,1.6,Found,1933,32.73333,-103.1,"(32.73333, -103.1)"
11891,Hobbs,H4,2300,2.3,Found,1933,32.73333,-103.1,"(32.73333, -103.1)"
5179,Bushman Land,"Iron, IVA",3000,3,Found,1933,-30,20,"(-30.0, 20.0)"
14698,Loomis,L6,3020,3.02,Found,1933,40.46667,-99.5,"(40.46667, -99.5)"
23513,Shafter Lake,H5,3027,3.027,Found,1933,32.4,-102.58333,"(32.4, -102.58333)"
18799,Pesyanoe,Aubrite,3393,3.393,Fell,1933,55.5,66.08333,"(55.5, 66.08333)"
